~VERSION INFORMATION
VERS.           2.0   :CWLS Log ASCII Standard - VERSION 2.0
WRAP.           NO    :One Line per depth step
PROD.  Schlumberger   :LAS Producer
PROG.  DLIS to ASCII 2.1                               :LAS Program name and version
CREA.                                                  :LAS Creation date {YYYY/MM/DD hh:mm}
SOURCE.     ait_DSI.dlis                               :DLIS File Name
FILE-ID.     HAIT  .018                                :File Identification Number
#--------------------------------------------------
~WELL INFORMATION
#MNEM.UNIT      DATA             DESCRIPTION
#---- ------ --------------   -----------------------------
STRT .F      7672.0          :START DEPTH     
STOP .F      13310.0         :STOP DEPTH     
STEP .F       0.5            :STEP     
NULL .          -999.25      :NULL VALUE
COMP .                                                 :COMPANY
CNTY .                                                 :COUNTY
STAT .                                                 :STATE
CTRY .                                                 :COUNTRY
UWI  .                                                 :UNIQUE WELL ID
DATE .        24-FEB-2000                              :LOG DATE {DD-MMM-YYYY}
SRVC .        Schlumberger                             :SERVICE COMPANY
LATI .DEG                                              :LATITUDE
LONG .DEG                                              :LONGITUDE
GDAT .                                                 :GeoDetic Datum
#-----------------------------------------------------------------------------
~PARAMETER INFORMATION
#MNEM.UNIT    VALUE                      DESCRIPTION
#---- -----   --------------------       ------------------------
TD   .F       13320.00000                :Total Depth
TNDTYP.        CMTD-B/A                  :Tension Device
TREF .LBF     1000.00000                 :Reference Tension of the Cable
DIFF .F          1.00000                 :Maximum Permitted Depth Difference
GGRD .DF/F       0.01000                 :Geothermal Gradient
GDEV .DEG        0.00000                 :Average Angular Deviation of Borehole from Normal
GTSE .        TEMP                       :Generalized Temperature Selection
SHT  .DEGF      67.99998                 :Surface Hole Temperature
BHS  .        OPEN                       :Borehole Status
MATR .        SAND                       :Rock Matrix for Neutron Porosity Corrections
GCSE .        HCAL                       :Generalized Caliper Selection
BHT  .DEGF     120.00000                 :Bottom Hole Temperature (used in calculations)
ETEM .DEGF      76.99998                 :HILT External Temperature
DHC  .        BS                         :Density Hole Correction
MDEN .G/C3       2.65000                 :Matrix Density
FD   .G/C3       1.00000                 :Fluid Density
SOCO .        YES                        :Standoff Correction Option
PTCO .        NO                         :Pressure/Temperature Correction Option
FSCO .        NO                         :Formation Salinity Correction Option
CCCO .        NO                         :Casing & Cement Thickness Correction Option
HSCO .        YES                        :Hole Size Correction Option
MWCO .        NO                         :Mud Weight Correction Option
MCCO .        NO                         :Mud Cake Correction Option
BSCO .        NO                         :Borehole Salinity Correction Option
SOCN .IN         0.12500                 :Standoff Distance
MCOR .        BARI                       :Mud Correction
BHFL .        WATER                      :Borehole Fluid Type
TIVD .F       11128.16992                :TVD of Tie-in Point
SPVD .F          0.00000                 :TVD of Starting Point
CD   .F          0.00000                 :Casing Shoe Depth
NLS  .                                   :Nominal Logging Speed
AMD  .DEG       96.63000                 :Azimuth of Maximum Deviation
STEM .DEGF      70.00000                 :Surface Temperature
TWS  .DEGF     100.00000                 :Temperature of Connate Water Sample
RW   .OHMM       1.00000                 :Resistivity of Connate Water
BPT  .                                   :Bubble Point Temperature
BSAL .PPM     62000.00000                :Borehole Salinity
MRT  .DEGF     120.00000                 :Maximum Recorded Temperature
RMFB .                                   :Resistivity of Mud Filtrate - BHT
RMB  .                                   :Resistivity of Mud - BHT
MCST .                                   :Mud Cake Sample Temperature
RMCS .                                   :Resistivity of Mud Cake Sample
MFST .                                   :Mud Filtrate Sample Temperature
RMFS .                                   :Resistivity of Mud Filtrate Sample
MST  .                                   :Mud Sample Temperature
RMS  .                                   :Resistivity of Mud Sample
DFPH .           8.40000                 :Drilling Fluid PH
DFL  .C3         0.00000                 :Drilling Fluid Loss
DFV  .S         71.00000                 :Drilling Fluid Viscosity
DFD  .LB/G      12.40000                 :Drilling Fluid Density
CWEI .LB/F      68.00000                 :Casing Weight
CSIZ .IN        13.37500                 :Current Casing Size
BS   .IN        12.25000                 :Bit Size
MHD  .DEG        6.79000                 :Maximum Hole Deviation
FLEV .F         10.00000                 :Fluid Level
CBLO .F       7966.00000                 :Casing Bottom of Logger
CBDR .F       7961.00000                 :Casing Bottom of Driller
CADT .                                   :Casing Depth To
CDF  .                                   :Casing Depth From
BSDT .                                   :Bit Size Depth To
BSDF .                                   :Bit Size Depth From
BLI  .F       13296.00000                :Bottom Log Interval
TDL  .F       13302.00000                :Total Depth - Logger
TDD  .F       13320.00000                :Total Depth - Driller
APD  .F         82.00000                 :Above Permanent Datum
EPD  .F          0.00000                 :Elevation of Permanent Datum
ELZ  .F         82.00000                 :Elevation of Log Zero
EDF  .F         82.00000                 :Elevation of Derrick Floor
EGL  .F       -3644.00000                :Elevation of Ground Level
EKB  .F         82.00000                 :Elevation of Kelly Bushing
LCC  .               440                 :Logging Company Code
MCSS .                                   :Mud Cake Sample Source
MFSS .                                   :Mud Filtrate Sample Source
MSS  .                                   :Mud Sample Source
TCS  .        18 00                      :Time Circulation Stopped
DCS  .                                   :Date Circulation Stopped
DFT  .        Oil Based Mud              :Drilling Fluid Type
CASG .                                   :Casing Grade
ENGI .                                   :Engineer's Name
TLAB .        11 00                      :Time Logger At Bottom
DLAB .                                   :Date Logger At Bottom
DATE .                                   :Date as Month-Day-Year
DMF  .        RKB                        :Drilling Measured From
LMF  .        RKB                        :Log Measured From
PDAT .        MSL                        :Permanent Datum
LCL  .F            23900                 :Logging Cable Length
RUN  .          1                        :RUN NUMBER
#-----------------------------------------------------------------------------
~CURVE INFORMATION
#MNEM.UNIT   API CODE                                  DESCRIPTION
#---- -----  --------                                  -----------------------
DEPT .F                                                :DEPTH (BOREHOLE) {F10.1}
BS   .IN                                               :Bit Size {F13.4}
CS   .F/HR                                             :Cable Speed {F13.4}
TENS .LBF                                              :Cable Tension {F13.4}
DTCO .US/F                                             :Delta-T Compressional {F13.4}
DTSM .US/F                                             :Delta-T Shear {F13.4}
GR   .GAPI                                             :Calibrated Gamma-Ray SC {F13.4}
ECGR .GAPI                                             :Gamma-Ray {F13.4}
NPHI .CFCF                                             :Thermal Neutron Porosity (Ratio Method, Sandstone matrix) {F13.4}
NPL  .CFCF                                             :Neutron Porosity Limestone {F13.4}
TNPH .CFCF                                             :Thermal Neutron Porosity (Sandstone matrix with EC corrections) {F13.4}
GDEV .DEG                                              :HGNS Deviation {F13.4}
AHO10.OHMM                                             :Array Induction One Foot Resistivity A10 {F13.4}
AHO20.OHMM                                             :Array Induction One Foot Resistivity A20 {F13.4}
AHF30.OHMM                                             :Array Induction Four Foot Resistivity A30 {F13.4}
AHF60.OHMM                                             :Array Induction Four Foot Resistivity A60 {F13.4}
AHF90.OHMM                                             :Array Induction Four Foot Resistivity A90 {F13.4}
AHTCA.DEGF                                             :Array Induction Array Temperature Calibrated {F13.4}
RXOI .OHMM                                             :MCFL Very High Resolution Invaded Zone Resistivity {F13.4}
HCAL .IN                                               :HRCC Cal. caliper SC {F13.4}
HDRA .G/C3                                             :HRDD Density Correction {F13.4}
PEFZ .                                                 :HRDD Standard Resolution Formation Photoelectric Factor {F13.4}
RHOZ .G/C3                                             :HRDD Standard Resolution Formation Density {F13.4}
HMIN .OHMM                                             :MCFL Micro Inverse Resistivity {F13.4}
HMNO .OHMM                                             :MCFL Micro Normal Resistivity {F13.4}
RXOZ .OHMM                                             :MCFL Standard Resolution Invaded Zone Resistivity {F13.4}
HGR  .GAPI                                             :Hires Calibrated Gamma-Ray SC {F13.4}
#-----------------------------------------------------------------------------
# 
#     DEPT        BS           CS           TENS         DTCO         DTSM         GR           ECGR         NPHI         NPL          TNPH         GDEV        AHO10        AHO20        AHF30        AHF60        AHF90        AHTCA         RXOI         HCAL         HDRA         PEFZ         RHOZ         HMIN         HMNO         RXOZ         HGR
#
~A  
# ...
   12548.0      12.2500    1726.2029    4899.0000     112.8838     256.0810      71.5924      98.1691       0.3852       0.3344       0.3838       5.4216       0.4858       0.4753       0.5579       0.5508       0.5402     134.4017    2941.6777      11.8980      -0.0015       1.7099       2.2851       1.2110       1.0208       0.3530      70.1888
   12548.5      12.2500    1723.8750    4899.0000     112.5769     259.1528      71.7095      98.2451       0.4044       0.3505       0.3749       5.4387       0.5203       0.4805       0.5646       0.5621       0.5509     134.4366    5000.0366      11.8758      -0.0020       1.6748       2.2862       1.4677       1.1046       1.1471      75.4567
   12549.0      12.2500    1727.0967    4872.0000     112.9455     258.4426      75.2458     103.0900       0.4213       0.3646       0.3878       5.4089       0.6359       0.5833       0.5905       0.5893       0.5771     134.4373    3484.4614      11.8758       0.0002       1.6888       2.3114       1.2217       0.7589       1.1472      69.2052
   12549.5      12.2500    1730.7786    4938.0000     112.3777     257.5107      76.3188     104.5601       0.4354       0.3764       0.4082       5.3792       0.7701       0.7172       0.6254       0.6260       0.6126     134.4366    5000.0366      11.8758       0.0008       1.7525       2.3361      24.9686      37.1908       0.7649      80.7979
   12550.0      12.2500    1728.8633    4896.0000     110.1582     255.8873      82.9934     113.8513       0.4235       0.3664       0.4134       5.3813       0.7720       0.7259       0.6607       0.6619       0.6472     134.3836       0.2700      11.9092       0.0000       1.8024       2.3520       1.9143       1.0860       0.3530      79.4382
   12550.5      12.2500    1730.9458    4858.0000     109.5445     253.8483      83.1713     114.1770       0.4109       0.3559       0.4000       5.4045       0.7300       0.7034       0.6944       0.6954       0.6795     134.4318       0.0900      11.9278      -0.0032       1.7968       2.3502       0.2346       0.2361       0.2416      89.2290
   12551.0      12.2500    1732.8585    4919.0000     109.4375     251.2074      84.1376     115.5035       0.4091       0.3544       0.3870       5.4262       0.7318       0.7156       0.7131       0.7151       0.6977     134.4278       0.2700      11.9278      -0.0071       1.7445       2.3383       0.1940       0.2075       0.1311      81.4271
   12551.5      12.2500    1735.5117    4824.0000     108.4453     252.1837      81.2102     111.5007       0.3987       0.3457       0.3834       5.4394       0.7647       0.7276       0.7244       0.7260       0.7081     134.3956       0.0540      11.9315      -0.0095       1.6826       2.3301       0.2501       0.2296       0.1836      81.8518
   12552.0      12.2500    1738.0767    4847.0000     108.3653     250.6651      81.4297     111.8500       0.4274       0.3697       0.3846       5.4531       0.8040       0.7595       0.7313       0.7323       0.7138     134.4278       0.2700      11.9426      -0.0095       1.6415       2.3331       0.8502       0.5848       0.2086      80.4466
   12552.5      12.2500    1741.4753    4896.0000     107.9496     251.5614      78.9706     108.4258       0.4247       0.3675       0.4094       5.4184       0.8156       0.7825       0.7330       0.7327       0.7138     134.3768    4654.7852      11.9315      -0.0088       1.6337       2.3377       1.4124       1.0882       0.9178      82.6595
   12553.0      12.2500    1741.3293    4799.0000     108.5281     251.0864      76.1603     104.5522       0.4326       0.3741       0.4053       5.3496       0.7684       0.7413       0.7233       0.7236       0.7048     134.4093    5000.0366      11.9278      -0.0080       1.6649       2.3405       0.6720       0.4322       0.2869      74.4746
   12553.5      12.2500    1744.0210    4834.0000     110.2251     252.0148      75.9154     104.1863       0.4180       0.3618       0.4184       5.3108       0.7353       0.7080       0.7076       0.7057       0.6872     134.4264       0.2700      11.9203      -0.0067       1.7187       2.3458       0.7539       0.4168       0.3278      71.7850
   12554.0      12.2500    1744.9595    4847.0000     111.2362     252.3258      75.3299     103.4714       0.4434       0.3831       0.4156       5.3334       0.7316       0.7043       0.6900       0.6860       0.6682     134.4120    4486.7681      11.9426      -0.0056       1.7851       2.3542      47.1889      68.2150       0.2295      80.5870
   12554.5      12.2500    1745.0699    4786.0000     111.9493     252.9642      74.6273     102.4625       0.4589       0.3961       0.4298       5.3785       0.7254       0.6896       0.6725       0.6672       0.6503     134.4606       0.1350      11.9315      -0.0058       1.8462       2.3499       0.4336       0.3113       0.2186      72.7181
   12555.0      12.2500    1749.0004    4798.0000     112.5444     253.3914      71.9956      98.8914       0.4521       0.3904       0.4306       5.3936       0.7049       0.6734       0.6538       0.6486       0.6326     134.3952       0.2700      11.9426      -0.0066       1.9073       2.3280       0.3764       0.2629       0.1311      69.9078
   12555.5      12.2500    1757.8615    4845.0000     112.8755     257.3821      73.5178     100.8526       0.4492       0.3880       0.4212       5.3937       0.6572       0.6369       0.6369       0.6312       0.6160     134.3939       0.0900      11.9092      -0.0078       1.9692       2.2953       0.9005       0.4513       0.1996      73.1691
   12556.0      12.2500    1764.0865    4909.0000     112.8940     259.1378      73.2836     100.4450       0.4296       0.3716       0.4196       5.3960       0.6036       0.5779       0.6270       0.6199       0.6051     134.3949    4443.5889      11.8869      -0.0058       2.0234       2.2804    1680.4536    1522.8965       0.4589      77.2850
   12556.5      12.2500    1770.9675    4927.0000     112.6701     258.0910      71.8796      98.4217       0.4254       0.3680       0.4144       5.3912       0.5940       0.5722       0.6263       0.6209       0.6062     134.3630    3893.5198      11.8609      -0.0041       2.0775       2.2786      69.7270      99.2541    4020.2825      69.2052
   12557.0      12.2500    1778.8314    4857.0000     112.3466     259.5375      73.8703     101.0602       0.4198       0.3633       0.4200       5.3527       0.6351       0.6049       0.6354       0.6334       0.6181     134.3774    4069.9814      11.8386      -0.0003       2.1195       2.3011      33.0614      48.3738       2.2938      69.7220
   12557.5      12.2500    1783.7808    4927.0000     111.6764     262.7632      77.3568     106.0278       0.4180       0.3619       0.4107       5.3224       0.7041       0.6574       0.6532       0.6523       0.6360     134.4217    2848.1838      11.8869       0.0012       2.1478       2.3274       2.0041       1.2867       0.3278      83.2570
   12558.0      12.2500    1779.1284    4947.0000     112.8835     258.1981      78.6967     107.9725       0.4435       0.3831       0.4134       5.3319       0.7599       0.7239       0.6710       0.6720       0.6547     134.4211       0.0900      11.9129       0.0009       2.1382       2.3494       0.3048       0.2644       0.2186      79.6591
   12558.5      12.2500    1777.9343    4888.0000     112.5443     259.1018      74.7154     102.6566       0.4656       0.4016       0.4252       5.3668       0.7442       0.7109       0.6877       0.6888       0.6706     134.4251       0.2700      11.9501      -0.0024       2.1015       2.3486       0.6110       0.3759       0.2186      73.3505
   12559.0      12.2500    1776.5696    4947.0000     112.0233     256.6812      74.0135     101.5761       0.4408       0.3809       0.4419       5.3873       0.7162       0.6887       0.7018       0.7022       0.6832     134.4124    4619.5264      11.9203      -0.0058       2.0633       2.3311       1.3913       1.0838       0.7649      71.3130
