~VERSION INFORMATION
VERS.           2.0   :CWLS Log ASCII Standard - VERSION 2.0
WRAP.           NO    :One Line per depth step
PROD.  Schlumberger   :LAS Producer
PROG.  DLIS to ASCII 2.1                               :LAS Program name and version
CREA.                                                  :LAS Creation date {YYYY/MM/DD hh:mm}
SOURCE.     ait_DSI.dlis                               :DLIS File Name
FILE-ID.     HAIT  .018                                :File Identification Number
#--------------------------------------------------
~WELL INFORMATION
#MNEM.UNIT      DATA             DESCRIPTION
#---- ------ --------------   -----------------------------
STRT .F      7672.0          :START DEPTH     
STOP .F      13310.0         :STOP DEPTH     
STEP .F       0.5            :STEP     
NULL .          -999.25      :NULL VALUE
COMP .                                                 :COMPANY
CNTY .                                                 :COUNTY
STAT .                                                 :STATE
CTRY .                                                 :COUNTRY
UWI  .                                                 :UNIQUE WELL ID
DATE .        24-FEB-2000                              :LOG DATE {DD-MMM-YYYY}
SRVC .        Schlumberger                             :SERVICE COMPANY
LATI .DEG                                              :LATITUDE
LONG .DEG                                              :LONGITUDE
GDAT .                                                 :GeoDetic Datum
#-----------------------------------------------------------------------------
~PARAMETER INFORMATION
#MNEM.UNIT    VALUE                      DESCRIPTION
#---- -----   --------------------       ------------------------
TD   .F       13320.00000                :Total Depth
TNDTYP.        CMTD-B/A                  :Tension Device
TREF .LBF     1000.00000                 :Reference Tension of the Cable
DIFF .F          1.00000                 :Maximum Permitted Depth Difference
GGRD .DF/F       0.01000                 :Geothermal Gradient
GDEV .DEG        0.00000                 :Average Angular Deviation of Borehole from Normal
GTSE .        TEMP                       :Generalized Temperature Selection
SHT  .DEGF      67.99998                 :Surface Hole Temperature
BHS  .        OPEN                       :Borehole Status
MATR .        SAND                       :Rock Matrix for Neutron Porosity Corrections
GCSE .        HCAL                       :Generalized Caliper Selection
BHT  .DEGF     120.00000                 :Bottom Hole Temperature (used in calculations)
ETEM .DEGF      76.99998                 :HILT External Temperature
DHC  .        BS                         :Density Hole Correction
MDEN .G/C3       2.65000                 :Matrix Density
FD   .G/C3       1.00000                 :Fluid Density
SOCO .        YES                        :Standoff Correction Option
PTCO .        NO                         :Pressure/Temperature Correction Option
FSCO .        NO                         :Formation Salinity Correction Option
CCCO .        NO                         :Casing & Cement Thickness Correction Option
HSCO .        YES                        :Hole Size Correction Option
MWCO .        NO                         :Mud Weight Correction Option
MCCO .        NO                         :Mud Cake Correction Option
BSCO .        NO                         :Borehole Salinity Correction Option
SOCN .IN         0.12500                 :Standoff Distance
MCOR .        BARI                       :Mud Correction
BHFL .        WATER                      :Borehole Fluid Type
TIVD .F       11128.16992                :TVD of Tie-in Point
SPVD .F          0.00000                 :TVD of Starting Point
CD   .F          0.00000                 :Casing Shoe Depth
NLS  .                                   :Nominal Logging Speed
AMD  .DEG       96.63000                 :Azimuth of Maximum Deviation
STEM .DEGF      70.00000                 :Surface Temperature
TWS  .DEGF     100.00000                 :Temperature of Connate Water Sample
RW   .OHMM       1.00000                 :Resistivity of Connate Water
BPT  .                                   :Bubble Point Temperature
BSAL .PPM     62000.00000                :Borehole Salinity
MRT  .DEGF     120.00000                 :Maximum Recorded Temperature
RMFB .                                   :Resistivity of Mud Filtrate - BHT
RMB  .                                   :Resistivity of Mud - BHT
MCST .                                   :Mud Cake Sample Temperature
RMCS .                                   :Resistivity of Mud Cake Sample
MFST .                                   :Mud Filtrate Sample Temperature
RMFS .                                   :Resistivity of Mud Filtrate Sample
MST  .                                   :Mud Sample Temperature
RMS  .                                   :Resistivity of Mud Sample
DFPH .           8.40000                 :Drilling Fluid PH
DFL  .C3         0.00000                 :Drilling Fluid Loss
DFV  .S         71.00000                 :Drilling Fluid Viscosity
DFD  .LB/G      12.40000                 :Drilling Fluid Density
CWEI .LB/F      68.00000                 :Casing Weight
CSIZ .IN        13.37500                 :Current Casing Size
BS   .IN        12.25000                 :Bit Size
MHD  .DEG        6.79000                 :Maximum Hole Deviation
FLEV .F         10.00000                 :Fluid Level
CBLO .F       7966.00000                 :Casing Bottom of Logger
CBDR .F       7961.00000                 :Casing Bottom of Driller
CADT .                                   :Casing Depth To
CDF  .                                   :Casing Depth From
BSDT .                                   :Bit Size Depth To
BSDF .                                   :Bit Size Depth From
BLI  .F       13296.00000                :Bottom Log Interval
TDL  .F       13302.00000                :Total Depth - Logger
TDD  .F       13320.00000                :Total Depth - Driller
APD  .F         82.00000                 :Above Permanent Datum
EPD  .F          0.00000                 :Elevation of Permanent Datum
ELZ  .F         82.00000                 :Elevation of Log Zero
EDF  .F         82.00000                 :Elevation of Derrick Floor
EGL  .F       -3644.00000                :Elevation of Ground Level
EKB  .F         82.00000                 :Elevation of Kelly Bushing
LCC  .               440                 :Logging Company Code
MCSS .                                   :Mud Cake Sample Source
MFSS .                                   :Mud Filtrate Sample Source
MSS  .                                   :Mud Sample Source
TCS  .        18 00                      :Time Circulation Stopped
DCS  .                                   :Date Circulation Stopped
DFT  .        Oil Based Mud              :Drilling Fluid Type
CASG .                                   :Casing Grade
ENGI .                                   :Engineer's Name
TLAB .        11 00                      :Time Logger At Bottom
DLAB .                                   :Date Logger At Bottom
DATE .                                   :Date as Month-Day-Year
DMF  .        RKB                        :Drilling Measured From
LMF  .        RKB                        :Log Measured From
PDAT .        MSL                        :Permanent Datum
LCL  .F            23900                 :Logging Cable Length
RUN  .          1                        :RUN NUMBER
#-----------------------------------------------------------------------------
~CURVE INFORMATION
#MNEM.UNIT   API CODE                                  DESCRIPTION
#---- -----  --------                                  -----------------------
DEPT .F                                                :DEPTH (BOREHOLE) {F10.1}
BS   .IN                                               :Bit Size {F13.4}
CS   .F/HR                                             :Cable Speed {F13.4}
TENS .LBF                                              :Cable Tension {F13.4}
DTCO .US/F                                             :Delta-T Compressional {F13.4}
DTSM .US/F                                             :Delta-T Shear {F13.4}
GR   .GAPI                                             :Calibrated Gamma-Ray SC {F13.4}
ECGR .GAPI                                             :Gamma-Ray {F13.4}
NPHI .CFCF                                             :Thermal Neutron Porosity (Ratio Method, Sandstone matrix) {F13.4}
NPL  .CFCF                                             :Neutron Porosity Limestone {F13.4}
TNPH .CFCF                                             :Thermal Neutron Porosity (Sandstone matrix with EC corrections) {F13.4}
GDEV .DEG                                              :HGNS Deviation {F13.4}
AHO10.OHMM                                             :Array Induction One Foot Resistivity A10 {F13.4}
AHO20.OHMM                                             :Array Induction One Foot Resistivity A20 {F13.4}
AHF30.OHMM                                             :Array Induction Four Foot Resistivity A30 {F13.4}
AHF60.OHMM                                             :Array Induction Four Foot Resistivity A60 {F13.4}
AHF90.OHMM                                             :Array Induction Four Foot Resistivity A90 {F13.4}
AHTCA.DEGF                                             :Array Induction Array Temperature Calibrated {F13.4}
RXOI .OHMM                                             :MCFL Very High Resolution Invaded Zone Resistivity {F13.4}
HCAL .IN                                               :HRCC Cal. caliper SC {F13.4}
HDRA .G/C3                                             :HRDD Density Correction {F13.4}
PEFZ .                                                 :HRDD Standard Resolution Formation Photoelectric Factor {F13.4}
RHOZ .G/C3                                             :HRDD Standard Resolution Formation Density {F13.4}
HMIN .OHMM                                             :MCFL Micro Inverse Resistivity {F13.4}
HMNO .OHMM                                             :MCFL Micro Normal Resistivity {F13.4}
RXOZ .OHMM                                             :MCFL Standard Resolution Invaded Zone Resistivity {F13.4}
HGR  .GAPI                                             :Hires Calibrated Gamma-Ray SC {F13.4}
#-----------------------------------------------------------------------------
# 
#     DEPT        BS           CS           TENS         DTCO         DTSM         GR           ECGR         NPHI         NPL          TNPH         GDEV        AHO10        AHO20        AHF30        AHF60        AHF90        AHTCA         RXOI         HCAL         HDRA         PEFZ         RHOZ         HMIN         HMNO         RXOZ         HGR
#
~A  
# ...
    9167.0      12.2500    1747.0560    3769.0000     142.9498     369.9828      94.8945     132.8081       0.5920       0.5074       0.6640       0.4356       1.0279       1.0575       1.1838       1.1850       1.1386     117.3019       0.0450      12.4405      -0.0107       2.4241       2.1567       0.1847       0.1883       0.1093      97.0029
    9167.5      12.2500    1747.7073    3760.0000     141.8705     370.2069      90.7494     126.9200       0.5603       0.4809       0.5630       0.3807       1.0978       1.1197       1.2164       1.2182       1.1692     117.3166    5000.0366      12.4219      -0.0112       2.4334       2.1611       0.9124       0.5106       0.1177      93.6887
    9168.0      12.2500    1748.4515    3800.0000     139.7155     369.4781      88.6696     123.2095       0.5470       0.4698       0.5210       0.9116       1.2165       1.2487       1.2574       1.2628       1.2104     117.3142       0.0900      12.2473      -0.0105       2.4147       2.1805       0.3926       0.2727       0.1700      81.8569
    9168.5      12.2500    1744.8876    3819.0000     139.8900     369.2537      83.2884     115.4744       0.5147       0.4428       0.4925       1.2541       1.2952       1.3527       1.3049       1.3104       1.2541     117.3262       0.1350      12.1879      -0.0105       2.3630       2.2047       1.4232       0.6452       0.2086      89.5801
    9169.0      12.2500    1745.2290    3760.0000     139.3486     372.8124      82.4943     114.5331       0.5116       0.4401       0.4678       1.0113       1.2905       1.3660       1.3421       1.3482       1.2887     117.2589    4660.6621      12.2250      -0.0104       2.3165       2.2239       2.4820       2.0615       0.4590      77.5574
    9169.5      12.2500    1745.3779    3738.0000     139.0572     371.2051      79.8011     110.7320       0.4567       0.3942       0.4719       0.7238       1.2801       1.3594       1.3562       1.3620       1.3010     117.3055    5000.0366      12.2102      -0.0103       2.2897       2.2398       0.5825       0.4362       0.2086      80.0224
    9170.0      12.2500    1744.5786    3781.0000     139.8209     374.6775      80.8140     112.1845       0.4560       0.3937       0.4322       0.8291       1.3274       1.3677       1.3412       1.3443       1.2847     117.3360       0.0540      12.2213      -0.0095       2.3268       2.2466       0.1134       0.1365       0.1093      81.5003
    9170.5      12.2500    1745.5967    3807.0000     140.4388     374.9749      81.1996     112.9864       0.4768       0.4110       0.4489       0.9095       1.2329       1.3111       1.3122       1.3148       1.2576     117.3180       0.0900      12.2845      -0.0080       2.4281       2.2476       0.1067       0.1305       0.0805      80.9973
    9171.0      12.2500    1741.8743    3837.0000     141.4063     375.0997      79.0813     109.8709       0.5569       0.4780       0.4687       0.8406       1.1295       1.1686       1.2785       1.2807       1.2262     117.3322       0.1350      12.2436      -0.0070       2.5615       2.2329       0.1188       0.1412       0.1020      81.5003
    9171.5      12.2500    1741.5439    3762.0000     142.1791     374.4531      78.3023     109.1661       0.5871       0.5033       0.5342       0.7805       1.1060       1.1706       1.2480       1.2490       1.1969     117.3148       0.1350      12.3365      -0.0070       2.6801       2.2097       0.2332       0.2336       0.1177      74.7045
    9172.0      12.2500    1745.2046    3737.0000     143.1010     374.5889      78.0265     108.8115       0.5729       0.4914       0.5565       0.8279       1.1144       1.1641       1.2249       1.2226       1.1725     117.3135       0.0900      12.3439      -0.0076       2.7283       2.1883       1.5998       0.6900       0.1434      78.2684
    9172.5      12.2500    1745.1084    3764.0000     143.4516     374.4499      78.3883     109.0746       0.5604       0.4810       0.5497       0.8047       1.1023       1.1492       1.2110       1.2095       1.1603     117.2980       0.1350      12.2845      -0.0079       2.7090       2.1757       2.0987       0.9076       0.1583      80.0802
    9173.0      12.2500    1741.5651    3733.0000     143.7078     372.3800      78.3143     109.8430       0.5362       0.4607       0.5420       0.9027       1.1017       1.1410       1.2036       1.2032       1.1543     117.3135    5000.0366      12.5000      -0.0072       2.6616       2.1709       0.8610       0.4513       0.1391      76.2309
    9173.5      12.2500    1741.1907    3712.0000     143.5039     370.2404      78.5631     109.4086       0.5431       0.4665       0.5171       1.0078       1.0986       1.1476       1.2012       1.2004       1.1518     117.3108       0.0540      12.3068      -0.0056       2.6352       2.1688       0.1188       0.1412       0.0883      77.8568
    9174.0      12.2500    1741.0040    3754.0000     142.7312     369.7123      83.0352     115.2679       0.5555       0.4768       0.5196       1.0614       1.0827       1.1360       1.2038       1.2040       1.1551     117.3416       0.0450      12.2213      -0.0041       2.6387       2.1673       0.0965       0.1207       0.0685      81.4143
    9174.5      12.2500    1740.3077    3769.0000     142.8839     367.9431      85.8285     120.7418       0.5290       0.4547       0.5190       0.9751       1.1070       1.1548       1.2086       1.2089       1.1596     117.3376       0.0675      12.5817      -0.0030       2.6728       2.1716       0.1003       0.1240       0.0729      90.3934
    9175.0      12.2500    1742.3816    3821.0000     142.9467     365.3629      83.5808     116.1222       0.5130       0.4413       0.4865       0.7588       1.1393       1.1961       1.2134       1.2140       1.1643     117.3073       0.2700      12.2436      -0.0034       2.7234       2.1775       0.1367       0.1570       0.1020      86.4185
    9175.5      12.2500    1741.6400    3782.0000     142.5323     359.3782      84.4952     118.0272       0.4990       0.4296       0.4773       0.3739       1.1291       1.1798       1.2179       1.2190       1.1689     117.3228       0.1350      12.3885      -0.0050       2.7613       2.1796       0.4030       0.2739       0.1208      74.6184
    9176.0      12.2500    1743.4305    3786.0000     141.9832     358.5002      84.2264     117.0029       0.5442       0.4674       0.4656       0.4968       1.1001       1.1577       1.2229       1.2243       1.1739     117.3208       0.2700      12.2399      -0.0066       2.7693       2.1772       0.7355       0.3811       0.1275      92.3905
    9176.5      12.2500    1743.5638    3789.0000     141.0506     352.0639      81.9343     114.0719       0.5596       0.4802       0.5239       0.9307       1.1141       1.1702       1.2267       1.2278       1.1771     117.3369    4042.9136      12.2993      -0.0085       2.7448       2.1646       1.6549       0.7162       0.1912      85.1149
    9177.0      12.2500    1743.4750    3714.0000     140.2952     352.2414      73.5283     102.3121       0.5262       0.4524       0.5301       1.1535       1.1420       1.1983       1.2292       1.2292       1.1784     117.3376    1186.2957      12.2845      -0.0079       2.7436       2.1513       1.3054       1.0631       0.5099      67.7998
    9177.5      12.2500    1743.3734    3743.0000     141.2436     359.1783      69.8157      97.1596       0.5485       0.4710       0.4839       0.9979       1.1504       1.2126       1.2290       1.2285       1.1778     117.3375    4688.1357      12.2882      -0.0078       2.7326       2.1370      70.2018     101.3551       0.4589      67.6533
    9178.0      12.2500    1743.2573    3769.0000     141.7110     360.6823      72.6261     100.8885       0.5606       0.4811       0.4959       0.8862       1.1406       1.1987       1.2246       1.2249       1.1744     117.3066       0.1350      12.2399      -0.0076       2.7183       2.1352       0.8740       0.4863       0.2700      75.0869
