~VERSION INFORMATION
VERS.           2.0   :CWLS Log ASCII Standard - VERSION 2.0
WRAP.           NO    :One Line per depth step
PROD.  Schlumberger   :LAS Producer
PROG.  DLIS to ASCII 2.1                               :LAS Program name and version
CREA.                                                  :LAS Creation date {YYYY/MM/DD hh:mm}
SOURCE.     ait_DSI.dlis                               :DLIS File Name
FILE-ID.     HAIT  .018                                :File Identification Number
#--------------------------------------------------
~WELL INFORMATION
#MNEM.UNIT      DATA             DESCRIPTION
#---- ------ --------------   -----------------------------
STRT .F      7672.0          :START DEPTH     
STOP .F      13310.0         :STOP DEPTH     
STEP .F       0.5            :STEP     
NULL .          -999.25      :NULL VALUE
COMP .                                                 :COMPANY
CNTY .                                                 :COUNTY
STAT .                                                 :STATE
CTRY .                                                 :COUNTRY
UWI  .                                                 :UNIQUE WELL ID
DATE .        24-FEB-2000                              :LOG DATE {DD-MMM-YYYY}
SRVC .        Schlumberger                             :SERVICE COMPANY
LATI .DEG                                              :LATITUDE
LONG .DEG                                              :LONGITUDE
GDAT .                                                 :GeoDetic Datum
#-----------------------------------------------------------------------------
~PARAMETER INFORMATION
#MNEM.UNIT    VALUE                      DESCRIPTION
#---- -----   --------------------       ------------------------
TD   .F       13320.00000                :Total Depth
TNDTYP.        CMTD-B/A                  :Tension Device
TREF .LBF     1000.00000                 :Reference Tension of the Cable
DIFF .F          1.00000                 :Maximum Permitted Depth Difference
GGRD .DF/F       0.01000                 :Geothermal Gradient
GDEV .DEG        0.00000                 :Average Angular Deviation of Borehole from Normal
GTSE .        TEMP                       :Generalized Temperature Selection
SHT  .DEGF      67.99998                 :Surface Hole Temperature
BHS  .        OPEN                       :Borehole Status
MATR .        SAND                       :Rock Matrix for Neutron Porosity Corrections
GCSE .        HCAL                       :Generalized Caliper Selection
BHT  .DEGF     120.00000                 :Bottom Hole Temperature (used in calculations)
ETEM .DEGF      76.99998                 :HILT External Temperature
DHC  .        BS                         :Density Hole Correction
MDEN .G/C3       2.65000                 :Matrix Density
FD   .G/C3       1.00000                 :Fluid Density
SOCO .        YES                        :Standoff Correction Option
PTCO .        NO                         :Pressure/Temperature Correction Option
FSCO .        NO                         :Formation Salinity Correction Option
CCCO .        NO                         :Casing & Cement Thickness Correction Option
HSCO .        YES                        :Hole Size Correction Option
MWCO .        NO                         :Mud Weight Correction Option
MCCO .        NO                         :Mud Cake Correction Option
BSCO .        NO                         :Borehole Salinity Correction Option
SOCN .IN         0.12500                 :Standoff Distance
MCOR .        BARI                       :Mud Correction
BHFL .        WATER                      :Borehole Fluid Type
TIVD .F       11128.16992                :TVD of Tie-in Point
SPVD .F          0.00000                 :TVD of Starting Point
CD   .F          0.00000                 :Casing Shoe Depth
NLS  .                                   :Nominal Logging Speed
AMD  .DEG       96.63000                 :Azimuth of Maximum Deviation
STEM .DEGF      70.00000                 :Surface Temperature
TWS  .DEGF     100.00000                 :Temperature of Connate Water Sample
RW   .OHMM       1.00000                 :Resistivity of Connate Water
BPT  .                                   :Bubble Point Temperature
BSAL .PPM     62000.00000                :Borehole Salinity
MRT  .DEGF     120.00000                 :Maximum Recorded Temperature
RMFB .                                   :Resistivity of Mud Filtrate - BHT
RMB  .                                   :Resistivity of Mud - BHT
MCST .                                   :Mud Cake Sample Temperature
RMCS .                                   :Resistivity of Mud Cake Sample
MFST .                                   :Mud Filtrate Sample Temperature
RMFS .                                   :Resistivity of Mud Filtrate Sample
MST  .                                   :Mud Sample Temperature
RMS  .                                   :Resistivity of Mud Sample
DFPH .           8.40000                 :Drilling Fluid PH
DFL  .C3         0.00000                 :Drilling Fluid Loss
DFV  .S         71.00000                 :Drilling Fluid Viscosity
DFD  .LB/G      12.40000                 :Drilling Fluid Density
CWEI .LB/F      68.00000                 :Casing Weight
CSIZ .IN        13.37500                 :Current Casing Size
BS   .IN        12.25000                 :Bit Size
MHD  .DEG        6.79000                 :Maximum Hole Deviation
FLEV .F         10.00000                 :Fluid Level
CBLO .F       7966.00000                 :Casing Bottom of Logger
CBDR .F       7961.00000                 :Casing Bottom of Driller
CADT .                                   :Casing Depth To
CDF  .                                   :Casing Depth From
BSDT .                                   :Bit Size Depth To
BSDF .                                   :Bit Size Depth From
BLI  .F       13296.00000                :Bottom Log Interval
TDL  .F       13302.00000                :Total Depth - Logger
TDD  .F       13320.00000                :Total Depth - Driller
APD  .F         82.00000                 :Above Permanent Datum
EPD  .F          0.00000                 :Elevation of Permanent Datum
ELZ  .F         82.00000                 :Elevation of Log Zero
EDF  .F         82.00000                 :Elevation of Derrick Floor
EGL  .F       -3644.00000                :Elevation of Ground Level
EKB  .F         82.00000                 :Elevation of Kelly Bushing
LCC  .               440                 :Logging Company Code
MCSS .                                   :Mud Cake Sample Source
MFSS .                                   :Mud Filtrate Sample Source
MSS  .                                   :Mud Sample Source
TCS  .        18 00                      :Time Circulation Stopped
DCS  .                                   :Date Circulation Stopped
DFT  .        Oil Based Mud              :Drilling Fluid Type
CASG .                                   :Casing Grade
ENGI .                                   :Engineer's Name
TLAB .        11 00                      :Time Logger At Bottom
DLAB .                                   :Date Logger At Bottom
DATE .                                   :Date as Month-Day-Year
DMF  .        RKB                        :Drilling Measured From
LMF  .        RKB                        :Log Measured From
PDAT .        MSL                        :Permanent Datum
LCL  .F            23900                 :Logging Cable Length
RUN  .          1                        :RUN NUMBER
#-----------------------------------------------------------------------------
~CURVE INFORMATION
#MNEM.UNIT   API CODE                                  DESCRIPTION
#---- -----  --------                                  -----------------------
DEPT .F                                                :DEPTH (BOREHOLE) {F10.1}
BS   .IN                                               :Bit Size {F13.4}
CS   .F/HR                                             :Cable Speed {F13.4}
TENS .LBF                                              :Cable Tension {F13.4}
DTCO .US/F                                             :Delta-T Compressional {F13.4}
DTSM .US/F                                             :Delta-T Shear {F13.4}
GR   .GAPI                                             :Calibrated Gamma-Ray SC {F13.4}
ECGR .GAPI                                             :Gamma-Ray {F13.4}
NPHI .CFCF                                             :Thermal Neutron Porosity (Ratio Method, Sandstone matrix) {F13.4}
NPL  .CFCF                                             :Neutron Porosity Limestone {F13.4}
TNPH .CFCF                                             :Thermal Neutron Porosity (Sandstone matrix with EC corrections) {F13.4}
GDEV .DEG                                              :HGNS Deviation {F13.4}
AHO10.OHMM                                             :Array Induction One Foot Resistivity A10 {F13.4}
AHO20.OHMM                                             :Array Induction One Foot Resistivity A20 {F13.4}
AHF30.OHMM                                             :Array Induction Four Foot Resistivity A30 {F13.4}
AHF60.OHMM                                             :Array Induction Four Foot Resistivity A60 {F13.4}
AHF90.OHMM                                             :Array Induction Four Foot Resistivity A90 {F13.4}
AHTCA.DEGF                                             :Array Induction Array Temperature Calibrated {F13.4}
RXOI .OHMM                                             :MCFL Very High Resolution Invaded Zone Resistivity {F13.4}
HCAL .IN                                               :HRCC Cal. caliper SC {F13.4}
HDRA .G/C3                                             :HRDD Density Correction {F13.4}
PEFZ .                                                 :HRDD Standard Resolution Formation Photoelectric Factor {F13.4}
RHOZ .G/C3                                             :HRDD Standard Resolution Formation Density {F13.4}
HMIN .OHMM                                             :MCFL Micro Inverse Resistivity {F13.4}
HMNO .OHMM                                             :MCFL Micro Normal Resistivity {F13.4}
RXOZ .OHMM                                             :MCFL Standard Resolution Invaded Zone Resistivity {F13.4}
HGR  .GAPI                                             :Hires Calibrated Gamma-Ray SC {F13.4}
#-----------------------------------------------------------------------------
# 
#     DEPT        BS           CS           TENS         DTCO         DTSM         GR           ECGR         NPHI         NPL          TNPH         GDEV        AHO10        AHO20        AHF30        AHF60        AHF90        AHTCA         RXOI         HCAL         HDRA         PEFZ         RHOZ         HMIN         HMNO         RXOZ         HGR
#
~A  
# ...
   10673.5      12.2500    1796.1703    4167.0000     118.8323     281.5018      77.0118     106.7275       0.4593       0.3964       0.4020       3.7281       1.2581       1.2269       1.2473       1.2472       1.1872     126.6383    4448.3887      12.1767       0.0552       2.2745       2.3451      50.8006      47.9079     141.1345      78.0869
   10674.0      12.2500    1795.1079    4223.0000     118.3523     279.7035      76.3093     106.3874       0.5101       0.4389       0.4419       3.7812       1.2806       1.2487       1.2672       1.2700       1.2073     126.6232    4162.6973      12.3365       0.0452       2.5290       2.3169      76.9442     110.3706    4338.4302      74.1230
   10674.5      12.2500    1793.8938    4165.0000     118.2666     277.3963      78.6903     111.3552       0.5042       0.4340       0.4754       3.8049       1.3177       1.2713       1.2893       1.2877       1.2236     126.6248    4247.1602      12.7452       0.0377       2.6587       2.2984      76.6364     109.8694    4204.7910      76.5821
   10675.0      12.2500    1797.0709    4181.0000     118.4077     275.8406      79.6270     112.2746       0.5219       0.4487       0.4726       3.7873       1.3391       1.3075       1.3063       1.3072       1.2412     126.6564    4106.9717      12.6449       0.0368       2.5565       2.3057      62.6212      89.5814    3963.1440      85.3645
   10675.5      12.2500    1796.1372    4236.0000     117.5554     273.8662      79.6270     112.1388       0.5112       0.4398       0.4711       3.7801       1.3722       1.3271       1.3288       1.3289       1.2609     126.6396    3404.4194      12.6114       0.0378       2.2825       2.3363      57.0739      65.3447     190.5745      76.9334
   10676.0      12.2500    1795.3280    4181.0000     118.5807     277.1027      77.2590     106.3934       0.5194       0.4467       0.4784       3.7835       1.4049       1.3631       1.3419       1.3371       1.2686     126.6229    4370.3354      12.0095       0.0301       1.9904       2.3560      65.6748      62.6431     190.7669      76.5821
   10676.5      12.2500    1794.4032    4193.0000     119.1186     277.5492      77.0248     105.8901       0.4876       0.4201       0.4892       3.7724       1.4230       1.3767       1.3551       1.3545       1.2846     126.6068    4055.1892      11.9649       0.0137       1.8203       2.3509      58.7253      84.3086     203.2852      78.2725
   10677.0      12.2500    1793.0884    4217.0000     121.0683     280.3759      77.8183     107.0722       0.4677       0.4034       0.4522       3.7567       1.4130       1.3619       1.3734       1.3702       1.2990     126.6410    4316.2695      11.9872      -0.0017       1.7579       2.3404      43.1376      62.2991    4196.0962      76.2308
   10677.5      12.2500    1791.5857    4252.0000     124.2595     285.6746      76.3220     105.1627       0.4683       0.4039       0.4314       3.7669       1.3585       1.3543       1.3908       1.3861       1.3137     126.6391    4199.7974      12.0244      -0.0062       1.7046       2.3429      60.5402      86.9399    4239.0469      78.9447
   10678.0      12.2500    1794.4331    4302.0000     126.9719     286.1603      75.6194     104.1355       0.4650       0.4012       0.4197       3.8181       1.3722       1.2933       1.4110       1.4045       1.3305     126.6518    4199.4287      12.0095      -0.0063       1.5945       2.3423      42.1994      61.0389    4196.0840      73.7717
   10678.5      12.2500    1793.6378    4200.0000     127.6967     290.0975      72.8353     100.2161       0.4602       0.3971       0.4191       3.8218       1.5289       1.5004       1.4302       1.4223       1.3468     126.6196    4009.1873      11.9872      -0.0077       1.4430       2.3150      30.2196      44.4127    1339.2756      74.1230
   10679.0      12.2500    1792.2136    4188.0000     127.1880     291.7145      74.7089     102.5598       0.4411       0.3811       0.4333       3.7886       1.5894       1.5789       1.4392       1.4302       1.3541     126.6686     221.9312      11.9278      -0.0080       1.3183       2.2824      33.9888      48.0306    1300.3188      70.6101
   10679.5      12.2500    1794.9014    4207.0000     128.4512     293.2893      77.5193     106.4483       0.4448       0.3842       0.4329       3.7826       1.4520       1.3980       1.4337       1.4257       1.3503     126.6542    3776.5837      11.9352      -0.0085       1.2968       2.2541      34.9770      50.6266    1298.9636      79.3924
   10680.0      12.2500    1793.9155    4136.0000     130.5759     296.8809      79.3929     108.8653       0.4584       0.3957       0.4465       3.7068       1.3637       1.3595       1.4258       1.4156       1.3416     126.6384    3928.5354      11.8980      -0.0069       1.4081       2.2490       1.4861       0.8488       0.7649      82.5541
   10680.5      12.2500    1792.5310    4141.0000     130.2392     299.4585      75.1551     102.9658       0.4697       0.4051       0.4420       3.6227       1.3348       1.3338       1.4169       1.4064       1.3335     126.6531    3796.2422      11.8758      -0.0033       1.5891       2.2615       1.8238       0.8446       0.4172      76.2308
   10681.0      12.2500    1791.2065    4167.0000     129.2994     289.4652      74.4525     102.2079       0.4298       0.3717       0.4307       3.6234       1.3963       1.3417       1.4140       1.4034       1.3309     126.6347       0.2700      11.9278      -0.0006       1.7565       2.2679       2.0225       0.9646       0.2869      66.6818
   10681.5      12.2500    1789.1766    4206.0000     129.3912     298.5998      73.8423     101.2542       0.3966       0.3439       0.3979       3.7042       1.5307       1.5230       1.4117       1.3998       1.3278     126.6494    2950.5842      11.8980      -0.0006       1.9143       2.2515       1.6832       0.8146       0.4585      80.4463
   10682.0      12.2500    1792.1771    4212.0000     129.0205     299.8108      79.1339     107.9489       0.4118       0.3567       0.3852       3.7467       1.4648       1.4479       1.4047       1.3900       1.3191     126.6641    3651.0298      11.7643      -0.0008       2.0905       2.2344       1.1218       1.0003       0.9036      74.4019
   10682.5      12.2500    1790.5443    4137.0000     128.9646     303.2281      74.6842     102.4526       0.4270       0.3694       0.3980       3.7346       1.3735       1.3518       1.3934       1.3786       1.3089     126.6142    5000.0366      11.9092       0.0090       2.2541       2.2567      11.8821      13.9547      56.3796      82.5541
   10683.0      12.2500    1793.2430    4154.0000     129.4175     302.1138      74.1234     101.4210       0.4212       0.3645       0.4047       3.7023       1.3898       1.3741       1.3781       1.3665       1.2980     126.6457    3182.7722      11.8423       0.0121       2.3527       2.2842       2.3552       1.4160       2.2626      67.0971
   10683.5      12.2500    1796.3273    4164.0000     128.8400     301.1242      71.3131      97.6178       0.4328       0.3743       0.3974       3.6737       1.3484       1.3315       1.3654       1.3530       1.2857     126.6142    4353.1978      11.8535       0.0089       2.3698       2.2948       1.5084       1.1189       2.2925      72.7178
   10684.0      12.2500    1795.2872    4143.0000     128.8385     300.4793      78.4561     107.3493       0.4343       0.3755       0.4106       3.6955       1.2930       1.2729       1.3654       1.3554       1.2880     126.6303    3918.2534      11.8423      -0.0037       2.3194       2.2828      65.2816      93.6669       4.5853      74.1230
   10684.5      12.2500    1794.0986    4185.0000     130.5932     301.2646      81.8519     111.9474       0.4634       0.3999       0.4086       3.7072       1.2983       1.2710       1.3781       1.3724       1.3033     126.6926    4664.7754      11.8312      -0.0070       2.1901       2.2916    1306.0400    1196.9097       0.5737      88.5261
