~VERSION INFORMATION
VERS.           2.0   :CWLS Log ASCII Standard - VERSION 2.0
WRAP.           NO    :One Line per depth step
PROD.  Schlumberger   :LAS Producer
PROG.  DLIS to ASCII 2.1                               :LAS Program name and version
CREA.                                                  :LAS Creation date {YYYY/MM/DD hh:mm}
SOURCE.     ait_DSI.dlis                               :DLIS File Name
FILE-ID.     HAIT  .018                                :File Identification Number
#--------------------------------------------------
~WELL INFORMATION
#MNEM.UNIT      DATA             DESCRIPTION
#---- ------ --------------   -----------------------------
STRT .F      7672.0          :START DEPTH     
STOP .F      13310.0         :STOP DEPTH     
STEP .F       0.5            :STEP     
NULL .          -999.25      :NULL VALUE
COMP .                                                 :COMPANY
CNTY .                                                 :COUNTY
STAT .                                                 :STATE
CTRY .                                                 :COUNTRY
UWI  .                                                 :UNIQUE WELL ID
DATE .        24-FEB-2000                              :LOG DATE {DD-MMM-YYYY}
SRVC .        Schlumberger                             :SERVICE COMPANY
LATI .DEG                                              :LATITUDE
LONG .DEG                                              :LONGITUDE
GDAT .                                                 :GeoDetic Datum
#-----------------------------------------------------------------------------
~PARAMETER INFORMATION
#MNEM.UNIT    VALUE                      DESCRIPTION
#---- -----   --------------------       ------------------------
TD   .F       13320.00000                :Total Depth
TNDTYP.        CMTD-B/A                  :Tension Device
TREF .LBF     1000.00000                 :Reference Tension of the Cable
DIFF .F          1.00000                 :Maximum Permitted Depth Difference
GGRD .DF/F       0.01000                 :Geothermal Gradient
GDEV .DEG        0.00000                 :Average Angular Deviation of Borehole from Normal
GTSE .        TEMP                       :Generalized Temperature Selection
SHT  .DEGF      67.99998                 :Surface Hole Temperature
BHS  .        OPEN                       :Borehole Status
MATR .        SAND                       :Rock Matrix for Neutron Porosity Corrections
GCSE .        HCAL                       :Generalized Caliper Selection
BHT  .DEGF     120.00000                 :Bottom Hole Temperature (used in calculations)
ETEM .DEGF      76.99998                 :HILT External Temperature
DHC  .        BS                         :Density Hole Correction
MDEN .G/C3       2.65000                 :Matrix Density
FD   .G/C3       1.00000                 :Fluid Density
SOCO .        YES                        :Standoff Correction Option
PTCO .        NO                         :Pressure/Temperature Correction Option
FSCO .        NO                         :Formation Salinity Correction Option
CCCO .        NO                         :Casing & Cement Thickness Correction Option
HSCO .        YES                        :Hole Size Correction Option
MWCO .        NO                         :Mud Weight Correction Option
MCCO .        NO                         :Mud Cake Correction Option
BSCO .        NO                         :Borehole Salinity Correction Option
SOCN .IN         0.12500                 :Standoff Distance
MCOR .        BARI                       :Mud Correction
BHFL .        WATER                      :Borehole Fluid Type
TIVD .F       11128.16992                :TVD of Tie-in Point
SPVD .F          0.00000                 :TVD of Starting Point
CD   .F          0.00000                 :Casing Shoe Depth
NLS  .                                   :Nominal Logging Speed
AMD  .DEG       96.63000                 :Azimuth of Maximum Deviation
STEM .DEGF      70.00000                 :Surface Temperature
TWS  .DEGF     100.00000                 :Temperature of Connate Water Sample
RW   .OHMM       1.00000                 :Resistivity of Connate Water
BPT  .                                   :Bubble Point Temperature
BSAL .PPM     62000.00000                :Borehole Salinity
MRT  .DEGF     120.00000                 :Maximum Recorded Temperature
RMFB .                                   :Resistivity of Mud Filtrate - BHT
RMB  .                                   :Resistivity of Mud - BHT
MCST .                                   :Mud Cake Sample Temperature
RMCS .                                   :Resistivity of Mud Cake Sample
MFST .                                   :Mud Filtrate Sample Temperature
RMFS .                                   :Resistivity of Mud Filtrate Sample
MST  .                                   :Mud Sample Temperature
RMS  .                                   :Resistivity of Mud Sample
DFPH .           8.40000                 :Drilling Fluid PH
DFL  .C3         0.00000                 :Drilling Fluid Loss
DFV  .S         71.00000                 :Drilling Fluid Viscosity
DFD  .LB/G      12.40000                 :Drilling Fluid Density
CWEI .LB/F      68.00000                 :Casing Weight
CSIZ .IN        13.37500                 :Current Casing Size
BS   .IN        12.25000                 :Bit Size
MHD  .DEG        6.79000                 :Maximum Hole Deviation
FLEV .F         10.00000                 :Fluid Level
CBLO .F       7966.00000                 :Casing Bottom of Logger
CBDR .F       7961.00000                 :Casing Bottom of Driller
CADT .                                   :Casing Depth To
CDF  .                                   :Casing Depth From
BSDT .                                   :Bit Size Depth To
BSDF .                                   :Bit Size Depth From
BLI  .F       13296.00000                :Bottom Log Interval
TDL  .F       13302.00000                :Total Depth - Logger
TDD  .F       13320.00000                :Total Depth - Driller
APD  .F         82.00000                 :Above Permanent Datum
EPD  .F          0.00000                 :Elevation of Permanent Datum
ELZ  .F         82.00000                 :Elevation of Log Zero
EDF  .F         82.00000                 :Elevation of Derrick Floor
EGL  .F       -3644.00000                :Elevation of Ground Level
EKB  .F         82.00000                 :Elevation of Kelly Bushing
LCC  .               440                 :Logging Company Code
MCSS .                                   :Mud Cake Sample Source
MFSS .                                   :Mud Filtrate Sample Source
MSS  .                                   :Mud Sample Source
TCS  .        18 00                      :Time Circulation Stopped
DCS  .                                   :Date Circulation Stopped
DFT  .        Oil Based Mud              :Drilling Fluid Type
CASG .                                   :Casing Grade
ENGI .                                   :Engineer's Name
TLAB .        11 00                      :Time Logger At Bottom
DLAB .                                   :Date Logger At Bottom
DATE .                                   :Date as Month-Day-Year
DMF  .        RKB                        :Drilling Measured From
LMF  .        RKB                        :Log Measured From
PDAT .        MSL                        :Permanent Datum
LCL  .F            23900                 :Logging Cable Length
RUN  .          1                        :RUN NUMBER
#-----------------------------------------------------------------------------
~CURVE INFORMATION
#MNEM.UNIT   API CODE                                  DESCRIPTION
#---- -----  --------                                  -----------------------
DEPT .F                                                :DEPTH (BOREHOLE) {F10.1}
BS   .IN                                               :Bit Size {F13.4}
CS   .F/HR                                             :Cable Speed {F13.4}
TENS .LBF                                              :Cable Tension {F13.4}
DTCO .US/F                                             :Delta-T Compressional {F13.4}
DTSM .US/F                                             :Delta-T Shear {F13.4}
GR   .GAPI                                             :Calibrated Gamma-Ray SC {F13.4}
ECGR .GAPI                                             :Gamma-Ray {F13.4}
NPHI .CFCF                                             :Thermal Neutron Porosity (Ratio Method, Sandstone matrix) {F13.4}
NPL  .CFCF                                             :Neutron Porosity Limestone {F13.4}
TNPH .CFCF                                             :Thermal Neutron Porosity (Sandstone matrix with EC corrections) {F13.4}
GDEV .DEG                                              :HGNS Deviation {F13.4}
AHO10.OHMM                                             :Array Induction One Foot Resistivity A10 {F13.4}
AHO20.OHMM                                             :Array Induction One Foot Resistivity A20 {F13.4}
AHF30.OHMM                                             :Array Induction Four Foot Resistivity A30 {F13.4}
AHF60.OHMM                                             :Array Induction Four Foot Resistivity A60 {F13.4}
AHF90.OHMM                                             :Array Induction Four Foot Resistivity A90 {F13.4}
AHTCA.DEGF                                             :Array Induction Array Temperature Calibrated {F13.4}
RXOI .OHMM                                             :MCFL Very High Resolution Invaded Zone Resistivity {F13.4}
HCAL .IN                                               :HRCC Cal. caliper SC {F13.4}
HDRA .G/C3                                             :HRDD Density Correction {F13.4}
PEFZ .                                                 :HRDD Standard Resolution Formation Photoelectric Factor {F13.4}
RHOZ .G/C3                                             :HRDD Standard Resolution Formation Density {F13.4}
HMIN .OHMM                                             :MCFL Micro Inverse Resistivity {F13.4}
HMNO .OHMM                                             :MCFL Micro Normal Resistivity {F13.4}
RXOZ .OHMM                                             :MCFL Standard Resolution Invaded Zone Resistivity {F13.4}
HGR  .GAPI                                             :Hires Calibrated Gamma-Ray SC {F13.4}
#-----------------------------------------------------------------------------
# 
#     DEPT        BS           CS           TENS         DTCO         DTSM         GR           ECGR         NPHI         NPL          TNPH         GDEV        AHO10        AHO20        AHF30        AHF60        AHF90        AHTCA         RXOI         HCAL         HDRA         PEFZ         RHOZ         HMIN         HMNO         RXOZ         HGR
#
~A  
# ...
   10294.0      12.2500    1744.4349    4106.0000     109.3759     247.8823      79.2585     109.4252       0.4325       0.3740       0.4399       3.2521       1.5990       1.5530       1.5277       1.4991       1.4067     124.3148    4179.7114      12.0764       0.0604       1.5354       2.4040      24.3154      24.1563      75.2575      79.3925
   10294.5      12.2500    1748.5085    4067.0000     111.3630     245.8559      79.2213     109.3738       0.3989       0.3459       0.4116       3.2122       1.5633       1.5343       1.5177       1.4926       1.3995     124.2988    3590.8418      12.0764       0.0680       1.5680       2.4313      49.6363      62.4750     166.8953      74.5786
   10295.0      12.2500    1744.9528    4157.0000     108.1294     238.9992      78.9042     109.1203       0.4089       0.3542       0.3905       3.2417       1.5323       1.4879       1.5003       1.4787       1.3864     124.3276    3776.8540      12.1210       0.0601       1.8222       2.4011      53.7889      52.7643     167.0994      83.5315
   10295.5      12.2500    1749.1003    4102.0000     107.4910     242.9566      79.5163     109.6571       0.4136       0.3581       0.4040       3.3438       1.5402       1.4848       1.4814       1.4624       1.3710     124.3464    4595.3809      12.0467       0.0472       2.0819       2.3740      29.0751      42.8523       0.5084      78.5073
   10296.0      12.2500    1746.1273    4062.0000     109.8012     252.1833      77.3343     106.6330       0.4232       0.3662       0.4012       3.2905       1.4943       1.4571       1.4645       1.4455       1.3550     124.3141       0.0675      12.0430       0.0325       2.1575       2.3583       1.8875       0.8455       0.3530      76.5822
   10296.5      12.2500    1746.6459    4057.0000     110.2497     255.1465      78.5882     108.1931       0.4247       0.3675       0.4038       3.2112       1.4100       1.4159       1.4501       1.4300       1.3401     124.3286       0.2700      12.0021       0.0206       2.1007       2.3564       2.3033       1.0731       0.3060      77.2494
   10297.0      12.2500    1747.2385    4074.0000     110.7648     259.7125      83.5063     114.9966       0.4390       0.3794       0.4028       3.2141       1.3801       1.3662       1.4396       1.4183       1.3284     124.3128    2801.9871      12.0095       0.0094       2.1258       2.3423       1.7594       1.0316       0.6556      82.2029
   10297.5      12.2500    1745.7280    4105.0000     111.1356     262.8106      86.0284     118.5370       0.4528       0.3909       0.4300       3.2431       1.4165       1.3955       1.4441       1.4188       1.3275     124.3306    3680.2476      12.0244      -0.0012       2.3485       2.3075       2.4139       1.9440       1.1471      91.3366
   10298.0      12.2500    1748.1025    4062.0000     111.9987     266.6285      88.6046     122.1212       0.4849       0.4178       0.4522       3.2993       1.4453       1.4415       1.4527       1.4247       1.3311     124.3956       0.2700      12.0318      -0.0026       2.6548       2.2838       1.4727       1.1074       1.1472      84.9162
   10298.5      12.2500    1748.9033    4076.0000     112.4000     266.9766      88.2612     121.7168       0.5353       0.4599       0.4751       3.3522       1.4713       1.4744       1.4515       1.4225       1.3278     124.3804    3674.5942      12.0467      -0.0040       2.8866       2.2671       2.2354       1.8865       1.1472      89.9314
   10299.0      12.2500    1749.5773    4138.0000     112.4839     271.4258      88.5060     122.0889       0.5551       0.4765       0.5073       3.3883       1.4657       1.4455       1.4551       1.4251       1.3285     124.3814    4632.1035      12.0541      -0.0068       2.9872       2.2602       1.2995       0.8736       1.5295      90.4584
   10299.5      12.2500    1749.3779    4079.0000     113.5597     273.1907      85.5296     117.8329       0.5542       0.4758       0.4984       3.3766       1.4846       1.4911       1.4525       1.4210       1.3239     124.3657    4267.8799      12.0207      -0.0066       2.9992       2.2775       1.4101       1.0875       2.2938      85.2838
   10300.0      12.2500    1751.5599    4038.0000     114.1735     263.5220      84.6233     116.9308       0.4817       0.4151       0.4909       3.3110       1.4579       1.4652       1.4473       1.4162       1.3184     124.3475    4342.9180      12.0987      -0.0061       3.0010       2.2983      38.2586      55.4114    3849.0786      81.0185
   10300.5      12.2500    1752.6134    4124.0000     114.1510     262.8059      80.4361     110.9884       0.4329       0.3743       0.4419       3.2703       1.4171       1.3975       1.4439       1.4135       1.3150     124.3479    3310.1814      12.0615      -0.0008       3.0022       2.3299      34.2508      49.5687    3097.5234      87.3988
   10301.0      12.2500    1749.3942    4107.0000     114.4566     265.7958      83.0704     114.6232       0.3765       0.3271       0.4135       3.2448       1.4039       1.3853       1.4464       1.4177       1.3176     124.4147    1717.3184      12.0615       0.0029       3.0713       2.3387       1.7100       1.1842       0.9178      72.7179
   10301.5      12.2500    1751.1002    4068.0000     115.0034     269.8577      80.8071     111.4687       0.4365       0.3773       0.3716       3.2378       1.4607       1.4483       1.4566       1.4298       1.3272     124.3842       0.2700      12.0541       0.0055       3.2352       2.3322       1.6175       0.8454       0.9178      89.0966
   10302.0      12.2500    1752.0880    3993.0000     114.6136     271.5345      86.0653     118.7557       0.4597       0.3968       0.4056       3.2874       1.4951       1.5090       1.4694       1.4428       1.3376     124.3530    3610.1565      12.0615       0.0037       3.4762       2.3099       2.1937       1.8919       1.1472      80.7977
   10302.5      12.2500    1753.2169    4065.0000     113.6223     267.6055      85.0023     117.3221       0.4992       0.4297       0.4271       3.3463       1.4955       1.4947       1.4795       1.4563       1.3486     124.3792    4313.8457      12.0690       0.0029       3.6868       2.3092     157.3105     180.8306    3959.7236      88.7342
   10303.0      12.2500    1750.5831    4083.0000     112.9501     268.2879      83.7143     115.2502       0.4543       0.3922       0.4588       3.3741       1.4807       1.4613       1.4869       1.4641       1.3549     124.3637    4211.1475      12.0021       0.0011       3.8240       2.3219      66.0462      94.8476    4088.8047      85.7159
   10303.5      12.2500    1751.4969    4038.0000     113.5945     265.6092      83.3028     114.7814       0.4622       0.3988       0.4232       3.3475       1.4931       1.4996       1.4915       1.4663       1.3568     124.4288    3664.8616      12.0244      -0.0011       3.8910       2.3387      50.7647      72.8176    3973.8843      76.9335
   10304.0      12.2500    1753.0233    4078.0000     116.1512     265.4049      82.8344     114.3299       0.4512       0.3896       0.4288       3.2823       1.5330       1.5271       1.4939       1.4624       1.3539     124.3618    3755.9563      12.0690      -0.0038       3.8879       2.3417      63.7376      91.1254    3927.5642      87.2823
   10304.5      12.2500    1750.3618    4198.0000     115.5041     263.6348      85.5078     117.9530       0.4575       0.3949       0.4228       3.2175       1.5090       1.5211       1.4877       1.4511       1.3445     124.4436    4135.2417      12.0541      -0.0042       3.7590       2.3452      51.8679      74.5467    4000.1973      84.3107
   10305.0      12.2500    1751.4854    4152.0000     114.7320     255.5605      86.6330     119.4376       0.4578       0.3952       0.4329       3.2245       1.4674       1.4968       1.4809       1.4331       1.3301     124.4086    3969.0217      12.0392      -0.0039       3.4623       2.3456      51.5526      73.9568    3987.6885      84.9993
