~VERSION INFORMATION
VERS.           2.0   :CWLS Log ASCII Standard - VERSION 2.0
WRAP.           NO    :One Line per depth step
PROD.  Schlumberger   :LAS Producer
PROG.  DLIS to ASCII 2.1                               :LAS Program name and version
CREA.                                                  :LAS Creation date {YYYY/MM/DD hh:mm}
SOURCE.     ait_DSI.dlis                               :DLIS File Name
FILE-ID.     HAIT  .018                                :File Identification Number
#--------------------------------------------------
~WELL INFORMATION
#MNEM.UNIT      DATA             DESCRIPTION
#---- ------ --------------   -----------------------------
STRT .F      7672.0          :START DEPTH     
STOP .F      13310.0         :STOP DEPTH     
STEP .F       0.5            :STEP     
NULL .          -999.25      :NULL VALUE
COMP .                                                 :COMPANY
CNTY .                                                 :COUNTY
STAT .                                                 :STATE
CTRY .                                                 :COUNTRY
UWI  .                                                 :UNIQUE WELL ID
DATE .        24-FEB-2000                              :LOG DATE {DD-MMM-YYYY}
SRVC .        Schlumberger                             :SERVICE COMPANY
LATI .DEG                                              :LATITUDE
LONG .DEG                                              :LONGITUDE
GDAT .                                                 :GeoDetic Datum
#-----------------------------------------------------------------------------
~PARAMETER INFORMATION
#MNEM.UNIT    VALUE                      DESCRIPTION
#---- -----   --------------------       ------------------------
TD   .F       13320.00000                :Total Depth
TNDTYP.        CMTD-B/A                  :Tension Device
TREF .LBF     1000.00000                 :Reference Tension of the Cable
DIFF .F          1.00000                 :Maximum Permitted Depth Difference
GGRD .DF/F       0.01000                 :Geothermal Gradient
GDEV .DEG        0.00000                 :Average Angular Deviation of Borehole from Normal
GTSE .        TEMP                       :Generalized Temperature Selection
SHT  .DEGF      67.99998                 :Surface Hole Temperature
BHS  .        OPEN                       :Borehole Status
MATR .        SAND                       :Rock Matrix for Neutron Porosity Corrections
GCSE .        HCAL                       :Generalized Caliper Selection
BHT  .DEGF     120.00000                 :Bottom Hole Temperature (used in calculations)
ETEM .DEGF      76.99998                 :HILT External Temperature
DHC  .        BS                         :Density Hole Correction
MDEN .G/C3       2.65000                 :Matrix Density
FD   .G/C3       1.00000                 :Fluid Density
SOCO .        YES                        :Standoff Correction Option
PTCO .        NO                         :Pressure/Temperature Correction Option
FSCO .        NO                         :Formation Salinity Correction Option
CCCO .        NO                         :Casing & Cement Thickness Correction Option
HSCO .        YES                        :Hole Size Correction Option
MWCO .        NO                         :Mud Weight Correction Option
MCCO .        NO                         :Mud Cake Correction Option
BSCO .        NO                         :Borehole Salinity Correction Option
SOCN .IN         0.12500                 :Standoff Distance
MCOR .        BARI                       :Mud Correction
BHFL .        WATER                      :Borehole Fluid Type
TIVD .F       11128.16992                :TVD of Tie-in Point
SPVD .F          0.00000                 :TVD of Starting Point
CD   .F          0.00000                 :Casing Shoe Depth
NLS  .                                   :Nominal Logging Speed
AMD  .DEG       96.63000                 :Azimuth of Maximum Deviation
STEM .DEGF      70.00000                 :Surface Temperature
TWS  .DEGF     100.00000                 :Temperature of Connate Water Sample
RW   .OHMM       1.00000                 :Resistivity of Connate Water
BPT  .                                   :Bubble Point Temperature
BSAL .PPM     62000.00000                :Borehole Salinity
MRT  .DEGF     120.00000                 :Maximum Recorded Temperature
RMFB .                                   :Resistivity of Mud Filtrate - BHT
RMB  .                                   :Resistivity of Mud - BHT
MCST .                                   :Mud Cake Sample Temperature
RMCS .                                   :Resistivity of Mud Cake Sample
MFST .                                   :Mud Filtrate Sample Temperature
RMFS .                                   :Resistivity of Mud Filtrate Sample
MST  .                                   :Mud Sample Temperature
RMS  .                                   :Resistivity of Mud Sample
DFPH .           8.40000                 :Drilling Fluid PH
DFL  .C3         0.00000                 :Drilling Fluid Loss
DFV  .S         71.00000                 :Drilling Fluid Viscosity
DFD  .LB/G      12.40000                 :Drilling Fluid Density
CWEI .LB/F      68.00000                 :Casing Weight
CSIZ .IN        13.37500                 :Current Casing Size
BS   .IN        12.25000                 :Bit Size
MHD  .DEG        6.79000                 :Maximum Hole Deviation
FLEV .F         10.00000                 :Fluid Level
CBLO .F       7966.00000                 :Casing Bottom of Logger
CBDR .F       7961.00000                 :Casing Bottom of Driller
CADT .                                   :Casing Depth To
CDF  .                                   :Casing Depth From
BSDT .                                   :Bit Size Depth To
BSDF .                                   :Bit Size Depth From
BLI  .F       13296.00000                :Bottom Log Interval
TDL  .F       13302.00000                :Total Depth - Logger
TDD  .F       13320.00000                :Total Depth - Driller
APD  .F         82.00000                 :Above Permanent Datum
EPD  .F          0.00000                 :Elevation of Permanent Datum
ELZ  .F         82.00000                 :Elevation of Log Zero
EDF  .F         82.00000                 :Elevation of Derrick Floor
EGL  .F       -3644.00000                :Elevation of Ground Level
EKB  .F         82.00000                 :Elevation of Kelly Bushing
LCC  .               440                 :Logging Company Code
MCSS .                                   :Mud Cake Sample Source
MFSS .                                   :Mud Filtrate Sample Source
MSS  .                                   :Mud Sample Source
TCS  .        18 00                      :Time Circulation Stopped
DCS  .                                   :Date Circulation Stopped
DFT  .        Oil Based Mud              :Drilling Fluid Type
CASG .                                   :Casing Grade
ENGI .                                   :Engineer's Name
TLAB .        11 00                      :Time Logger At Bottom
DLAB .                                   :Date Logger At Bottom
DATE .                                   :Date as Month-Day-Year
DMF  .        RKB                        :Drilling Measured From
LMF  .        RKB                        :Log Measured From
PDAT .        MSL                        :Permanent Datum
LCL  .F            23900                 :Logging Cable Length
RUN  .          1                        :RUN NUMBER
#-----------------------------------------------------------------------------
~CURVE INFORMATION
#MNEM.UNIT   API CODE                                  DESCRIPTION
#---- -----  --------                                  -----------------------
DEPT .F                                                :DEPTH (BOREHOLE) {F10.1}
BS   .IN                                               :Bit Size {F13.4}
CS   .F/HR                                             :Cable Speed {F13.4}
TENS .LBF                                              :Cable Tension {F13.4}
DTCO .US/F                                             :Delta-T Compressional {F13.4}
DTSM .US/F                                             :Delta-T Shear {F13.4}
GR   .GAPI                                             :Calibrated Gamma-Ray SC {F13.4}
ECGR .GAPI                                             :Gamma-Ray {F13.4}
NPHI .CFCF                                             :Thermal Neutron Porosity (Ratio Method, Sandstone matrix) {F13.4}
NPL  .CFCF                                             :Neutron Porosity Limestone {F13.4}
TNPH .CFCF                                             :Thermal Neutron Porosity (Sandstone matrix with EC corrections) {F13.4}
GDEV .DEG                                              :HGNS Deviation {F13.4}
AHO10.OHMM                                             :Array Induction One Foot Resistivity A10 {F13.4}
AHO20.OHMM                                             :Array Induction One Foot Resistivity A20 {F13.4}
AHF30.OHMM                                             :Array Induction Four Foot Resistivity A30 {F13.4}
AHF60.OHMM                                             :Array Induction Four Foot Resistivity A60 {F13.4}
AHF90.OHMM                                             :Array Induction Four Foot Resistivity A90 {F13.4}
AHTCA.DEGF                                             :Array Induction Array Temperature Calibrated {F13.4}
RXOI .OHMM                                             :MCFL Very High Resolution Invaded Zone Resistivity {F13.4}
HCAL .IN                                               :HRCC Cal. caliper SC {F13.4}
HDRA .G/C3                                             :HRDD Density Correction {F13.4}
PEFZ .                                                 :HRDD Standard Resolution Formation Photoelectric Factor {F13.4}
RHOZ .G/C3                                             :HRDD Standard Resolution Formation Density {F13.4}
HMIN .OHMM                                             :MCFL Micro Inverse Resistivity {F13.4}
HMNO .OHMM                                             :MCFL Micro Normal Resistivity {F13.4}
RXOZ .OHMM                                             :MCFL Standard Resolution Invaded Zone Resistivity {F13.4}
HGR  .GAPI                                             :Hires Calibrated Gamma-Ray SC {F13.4}
#-----------------------------------------------------------------------------
# 
#     DEPT        BS           CS           TENS         DTCO         DTSM         GR           ECGR         NPHI         NPL          TNPH         GDEV        AHO10        AHO20        AHF30        AHF60        AHF90        AHTCA         RXOI         HCAL         HDRA         PEFZ         RHOZ         HMIN         HMNO         RXOZ         HGR
#
~A  
# ...
   11421.0      12.2500    1751.1442    4640.0000     113.6627     291.0721      73.3060     103.7359       0.5174       0.4450       0.4389       4.1801       1.0009       1.0479       0.9991       0.9945       0.9618     130.6668    4561.9771      12.7452       0.0008       2.0775       2.2858     891.4875     830.1434    4352.8823      72.3527
   11421.5      12.2500    1752.1382    4493.0000     123.2787     293.3477      77.8728     109.5204       0.5086       0.4376       0.4670       4.1527       0.8721       0.8747       0.9746       0.9699       0.9386     130.6675    4324.0234      12.5743      -0.0029       2.0096       2.2622     625.6014     595.1199    4460.2559      76.9335
   11422.0      12.2500    1753.2742    4424.0000     123.0813     290.2434      79.6273     111.7302       0.4670       0.4028       0.4663       4.1559       0.8726       0.8898       0.9559       0.9461       0.9163     130.6531    4600.4634      12.5111       0.0084       1.6048       2.2842      82.1739     115.9016       4.4266      84.3108
   11422.5      12.2500    1754.8137    4460.0000     123.6649     292.6382      79.6273     112.7713       0.4086       0.3540       0.4441       4.1991       0.9729       0.9520       0.9467       0.9380       0.9087     130.6846      11.2879      12.7675       0.0377       1.2090       2.3519       1.8432       0.8679       0.3521      77.4836
   11423.0      12.2500    1756.5731    4462.0000     121.2884     297.1353      75.8802     107.8917       0.4079       0.3534       0.4111       4.2588       0.9467       0.9558       0.9497       0.9422       0.9124     130.6511       0.1350      12.8789       0.0456       1.1385       2.3799       1.4809       0.6716       0.3521      76.9335
   11423.5      12.2500    1754.4188    4465.0000     119.1197     283.5846      74.5873     105.5490       0.4396       0.3799       0.4125       4.2895       0.9261       0.9175       0.9560       0.9486       0.9186     130.6980    3990.1802      12.7452       0.0350       1.4412       2.3591      37.3342      54.1813       0.5099      73.8851
   11424.0      12.2500    1755.8806    4481.0000     119.5555     290.3130      72.2453     100.8882       0.5188       0.4462       0.4185       4.2490       0.9715       0.9518       0.9653       0.9560       0.9258     130.6316    3744.9648      12.3811       0.0064       1.8727       2.3034      70.3104     100.5261    4085.0566      72.5825
   11424.5      12.2500    1753.6273    4482.0000     120.1231     303.8278      76.1096     105.5655       0.5264       0.4525       0.4555       4.1798       0.9859       0.9708       0.9758       0.9659       0.9352     130.6635    4365.5698      12.1990      -0.0022       2.0636       2.2869      87.6955     120.2053    4178.4766      69.9076
   11425.0      12.2500    1754.9761    4520.0000     122.1863     304.1049      79.4023     110.5468       0.4967       0.4277       0.4581       4.1733       0.9860       0.9716       0.9860       0.9756       0.9443     130.6299    4174.0586      12.2993      -0.0045       1.8700       2.2862     551.7630     529.6749    4403.7822      84.6621
   11425.5      12.2500    1752.5936    4469.0000     122.1919     300.4383      84.2034     118.0708       0.4560       0.3936       0.4534       4.2246       0.9953       0.9914       1.0005       0.9855       0.9542     130.6614    4677.9219      12.4925      -0.0044       1.4452       2.2875     229.6629     246.3722       2.2934      83.2896
   11426.0      12.2500    1756.4226    4423.0000     120.2746     291.7988      85.2281     120.3173       0.4148       0.3591       0.4516       4.2729       1.0030       0.9911       1.0099       0.9990       0.9670     130.6607     664.8223      12.6783       0.0356       1.0891       2.3490       1.0875       0.6621       0.6556      84.3108
   11426.5      12.2500    1757.4442    4441.0000     119.7145     282.7627      82.5254     117.3404       0.4512       0.3896       0.4333       4.2907       1.0063       1.0287       1.0170       1.0101       0.9772     130.6681    3845.1177      12.8789       0.0557       0.9596       2.3853       0.9867       0.5939       0.6556      87.7346
   11427.0      12.2500    1757.3916    4393.0000     118.7247     276.3672      77.3614     111.0048       0.4505       0.3890       0.4450       4.2845       0.9916       0.9714       1.0200       1.0188       0.9850     130.7016    4457.3701      13.1390       0.0570       1.2639       2.3909      62.2412      89.2282       0.9178      75.4762
   11427.5      12.2500    1757.8210    4493.0000     119.9777     283.7286      70.2476      99.3682       0.4967       0.4277       0.4310       4.2387       1.0443       1.0285       1.0166       1.0229       0.9880     130.6875    4324.3945      12.7340       0.0184       1.6949       2.3359     461.0099     449.6855    4281.9365      68.2554
   11428.0      12.2500    1757.3308    4564.0000     119.6520     291.6490      71.7699     100.5405       0.4966       0.4276       0.4494       4.1578       1.0826       1.0736       1.0100       1.0181       0.9826     130.6868    4480.9951      12.4665       0.0000       1.9629       2.3125      76.5894     109.9409    4194.0703      66.3947
   11428.5      12.2500    1755.2847    4537.0000     118.5113     278.5027      72.6012     101.1898       0.4982       0.4289       0.4356       4.1415       0.9589       1.0106       1.0008       1.0084       0.9728     130.6875    3660.0239      12.3290       0.0003       1.7429       2.3245      48.9908      70.3611    3945.7393      82.0697
   11429.0      12.2500    1753.1951    4490.0000     116.1107     270.2793      74.8134     105.1037       0.4737       0.4084       0.4194       4.1941       0.8484       0.8409       0.9926       1.0004       0.9645     130.7022    3271.7166      12.5445       0.0015       1.3147       2.3308      54.1959      77.5264    3351.9924      71.2923
   11429.5      12.2500    1754.4821    4465.0000     116.2947     269.1443      71.7688     101.1944       0.4419       0.3818       0.4074       4.2498       0.8462       0.8730       0.9813       0.9857       0.9500     130.6553    3966.9783      12.6449       0.0270       1.0068       2.3652       1.1042       0.8093       1.1471      72.0451
   11430.0      12.2500    1756.1941    4531.0000     116.0074     266.3349      67.5350      95.5310       0.4171       0.3611       0.4015       4.2793       1.1451       1.1700       0.9756       0.9757       0.9398     130.7022    3659.7273      12.7340       0.0394       1.0458       2.3810       0.9130       0.6585       1.1472      70.9615
   11430.5      12.2500    1753.7362    4547.0000     116.5574     257.2318      60.9724      85.7284       0.4065       0.3523       0.4048       4.2806       1.2656       1.2071       0.9554       0.9518       0.9169     130.7022    4259.9136      12.5668       0.0392       1.5505       2.3709      55.1599      79.1776       1.5294      58.3043
   11431.0      12.2500    1755.1005    4488.0000     114.9513     274.7765      59.3330      82.6398       0.4226       0.3657       0.4184       4.2430       0.8607       0.9270       0.9284       0.9276       0.8936     130.6553    4100.0645      12.3105       0.0048       2.1650       2.2993      68.9587      98.5161    4142.7598      53.3453
   11431.5      12.2500    1752.4863    4588.0000     117.7107     301.5298      64.1852      89.5093       0.4889       0.4211       0.4320       4.1760       0.7434       0.7234       0.9053       0.9021       0.8692     130.7050    4410.2070      12.3439      -0.0241       2.5441       2.2359     629.9520     599.1626    4266.1699      66.0434
   11432.0      12.2500    1753.6721    4569.0000     120.8853     296.6451      69.2154      96.9488       0.5174       0.4450       0.4773       4.1220       0.8353       0.8236       0.8974       0.8970       0.8636     130.7053    4470.5972      12.4628      -0.0324       2.3563       2.2200      77.3520     111.0677    4318.3569      73.0605
