~VERSION INFORMATION
VERS.           2.0   :CWLS Log ASCII Standard - VERSION 2.0
WRAP.           NO    :One Line per depth step
PROD.  Schlumberger   :LAS Producer
PROG.  DLIS to ASCII 2.1                               :LAS Program name and version
CREA.                                                  :LAS Creation date {YYYY/MM/DD hh:mm}
SOURCE.     ait_DSI.dlis                               :DLIS File Name
FILE-ID.     HAIT  .018                                :File Identification Number
#--------------------------------------------------
~WELL INFORMATION
#MNEM.UNIT      DATA             DESCRIPTION
#---- ------ --------------   -----------------------------
STRT .F      7672.0          :START DEPTH     
STOP .F      13310.0         :STOP DEPTH     
STEP .F       0.5            :STEP     
NULL .          -999.25      :NULL VALUE
COMP .                                                 :COMPANY
CNTY .                                                 :COUNTY
STAT .                                                 :STATE
CTRY .                                                 :COUNTRY
UWI  .                                                 :UNIQUE WELL ID
DATE .        24-FEB-2000                              :LOG DATE {DD-MMM-YYYY}
SRVC .        Schlumberger                             :SERVICE COMPANY
LATI .DEG                                              :LATITUDE
LONG .DEG                                              :LONGITUDE
GDAT .                                                 :GeoDetic Datum
#-----------------------------------------------------------------------------
~PARAMETER INFORMATION
#MNEM.UNIT    VALUE                      DESCRIPTION
#---- -----   --------------------       ------------------------
TD   .F       13320.00000                :Total Depth
TNDTYP.        CMTD-B/A                  :Tension Device
TREF .LBF     1000.00000                 :Reference Tension of the Cable
DIFF .F          1.00000                 :Maximum Permitted Depth Difference
GGRD .DF/F       0.01000                 :Geothermal Gradient
GDEV .DEG        0.00000                 :Average Angular Deviation of Borehole from Normal
GTSE .        TEMP                       :Generalized Temperature Selection
SHT  .DEGF      67.99998                 :Surface Hole Temperature
BHS  .        OPEN                       :Borehole Status
MATR .        SAND                       :Rock Matrix for Neutron Porosity Corrections
GCSE .        HCAL                       :Generalized Caliper Selection
BHT  .DEGF     120.00000                 :Bottom Hole Temperature (used in calculations)
ETEM .DEGF      76.99998                 :HILT External Temperature
DHC  .        BS                         :Density Hole Correction
MDEN .G/C3       2.65000                 :Matrix Density
FD   .G/C3       1.00000                 :Fluid Density
SOCO .        YES                        :Standoff Correction Option
PTCO .        NO                         :Pressure/Temperature Correction Option
FSCO .        NO                         :Formation Salinity Correction Option
CCCO .        NO                         :Casing & Cement Thickness Correction Option
HSCO .        YES                        :Hole Size Correction Option
MWCO .        NO                         :Mud Weight Correction Option
MCCO .        NO                         :Mud Cake Correction Option
BSCO .        NO                         :Borehole Salinity Correction Option
SOCN .IN         0.12500                 :Standoff Distance
MCOR .        BARI                       :Mud Correction
BHFL .        WATER                      :Borehole Fluid Type
TIVD .F       11128.16992                :TVD of Tie-in Point
SPVD .F          0.00000                 :TVD of Starting Point
CD   .F          0.00000                 :Casing Shoe Depth
NLS  .                                   :Nominal Logging Speed
AMD  .DEG       96.63000                 :Azimuth of Maximum Deviation
STEM .DEGF      70.00000                 :Surface Temperature
TWS  .DEGF     100.00000                 :Temperature of Connate Water Sample
RW   .OHMM       1.00000                 :Resistivity of Connate Water
BPT  .                                   :Bubble Point Temperature
BSAL .PPM     62000.00000                :Borehole Salinity
MRT  .DEGF     120.00000                 :Maximum Recorded Temperature
RMFB .                                   :Resistivity of Mud Filtrate - BHT
RMB  .                                   :Resistivity of Mud - BHT
MCST .                                   :Mud Cake Sample Temperature
RMCS .                                   :Resistivity of Mud Cake Sample
MFST .                                   :Mud Filtrate Sample Temperature
RMFS .                                   :Resistivity of Mud Filtrate Sample
MST  .                                   :Mud Sample Temperature
RMS  .                                   :Resistivity of Mud Sample
DFPH .           8.40000                 :Drilling Fluid PH
DFL  .C3         0.00000                 :Drilling Fluid Loss
DFV  .S         71.00000                 :Drilling Fluid Viscosity
DFD  .LB/G      12.40000                 :Drilling Fluid Density
CWEI .LB/F      68.00000                 :Casing Weight
CSIZ .IN        13.37500                 :Current Casing Size
BS   .IN        12.25000                 :Bit Size
MHD  .DEG        6.79000                 :Maximum Hole Deviation
FLEV .F         10.00000                 :Fluid Level
CBLO .F       7966.00000                 :Casing Bottom of Logger
CBDR .F       7961.00000                 :Casing Bottom of Driller
CADT .                                   :Casing Depth To
CDF  .                                   :Casing Depth From
BSDT .                                   :Bit Size Depth To
BSDF .                                   :Bit Size Depth From
BLI  .F       13296.00000                :Bottom Log Interval
TDL  .F       13302.00000                :Total Depth - Logger
TDD  .F       13320.00000                :Total Depth - Driller
APD  .F         82.00000                 :Above Permanent Datum
EPD  .F          0.00000                 :Elevation of Permanent Datum
ELZ  .F         82.00000                 :Elevation of Log Zero
EDF  .F         82.00000                 :Elevation of Derrick Floor
EGL  .F       -3644.00000                :Elevation of Ground Level
EKB  .F         82.00000                 :Elevation of Kelly Bushing
LCC  .               440                 :Logging Company Code
MCSS .                                   :Mud Cake Sample Source
MFSS .                                   :Mud Filtrate Sample Source
MSS  .                                   :Mud Sample Source
TCS  .        18 00                      :Time Circulation Stopped
DCS  .                                   :Date Circulation Stopped
DFT  .        Oil Based Mud              :Drilling Fluid Type
CASG .                                   :Casing Grade
ENGI .                                   :Engineer's Name
TLAB .        11 00                      :Time Logger At Bottom
DLAB .                                   :Date Logger At Bottom
DATE .                                   :Date as Month-Day-Year
DMF  .        RKB                        :Drilling Measured From
LMF  .        RKB                        :Log Measured From
PDAT .        MSL                        :Permanent Datum
LCL  .F            23900                 :Logging Cable Length
RUN  .          1                        :RUN NUMBER
#-----------------------------------------------------------------------------
~CURVE INFORMATION
#MNEM.UNIT   API CODE                                  DESCRIPTION
#---- -----  --------                                  -----------------------
DEPT .F                                                :DEPTH (BOREHOLE) {F10.1}
BS   .IN                                               :Bit Size {F13.4}
CS   .F/HR                                             :Cable Speed {F13.4}
TENS .LBF                                              :Cable Tension {F13.4}
DTCO .US/F                                             :Delta-T Compressional {F13.4}
DTSM .US/F                                             :Delta-T Shear {F13.4}
GR   .GAPI                                             :Calibrated Gamma-Ray SC {F13.4}
ECGR .GAPI                                             :Gamma-Ray {F13.4}
NPHI .CFCF                                             :Thermal Neutron Porosity (Ratio Method, Sandstone matrix) {F13.4}
NPL  .CFCF                                             :Neutron Porosity Limestone {F13.4}
TNPH .CFCF                                             :Thermal Neutron Porosity (Sandstone matrix with EC corrections) {F13.4}
GDEV .DEG                                              :HGNS Deviation {F13.4}
AHO10.OHMM                                             :Array Induction One Foot Resistivity A10 {F13.4}
AHO20.OHMM                                             :Array Induction One Foot Resistivity A20 {F13.4}
AHF30.OHMM                                             :Array Induction Four Foot Resistivity A30 {F13.4}
AHF60.OHMM                                             :Array Induction Four Foot Resistivity A60 {F13.4}
AHF90.OHMM                                             :Array Induction Four Foot Resistivity A90 {F13.4}
AHTCA.DEGF                                             :Array Induction Array Temperature Calibrated {F13.4}
RXOI .OHMM                                             :MCFL Very High Resolution Invaded Zone Resistivity {F13.4}
HCAL .IN                                               :HRCC Cal. caliper SC {F13.4}
HDRA .G/C3                                             :HRDD Density Correction {F13.4}
PEFZ .                                                 :HRDD Standard Resolution Formation Photoelectric Factor {F13.4}
RHOZ .G/C3                                             :HRDD Standard Resolution Formation Density {F13.4}
HMIN .OHMM                                             :MCFL Micro Inverse Resistivity {F13.4}
HMNO .OHMM                                             :MCFL Micro Normal Resistivity {F13.4}
RXOZ .OHMM                                             :MCFL Standard Resolution Invaded Zone Resistivity {F13.4}
HGR  .GAPI                                             :Hires Calibrated Gamma-Ray SC {F13.4}
#-----------------------------------------------------------------------------
# 
#     DEPT        BS           CS           TENS         DTCO         DTSM         GR           ECGR         NPHI         NPL          TNPH         GDEV        AHO10        AHO20        AHF30        AHF60        AHF90        AHTCA         RXOI         HCAL         HDRA         PEFZ         RHOZ         HMIN         HMNO         RXOZ         HGR
#
~A  
# ...
    9546.5      12.2500    1713.8569    3879.0000     128.5237     290.9243      85.3543     116.8887       0.4828       0.4160       0.4555       1.2444       1.4655       1.4067       1.3486       1.2929       1.2292     119.8048    5000.0366      11.8646      -0.0106       2.2390       2.2846       2.0775       1.1446       0.5099      87.4723
    9547.0      12.2500    1709.7654    3914.0000     130.4720     289.2048      78.9882     107.8438       0.4622       0.3988       0.4414       1.3837       1.4450       1.3277       1.3524       1.2868       1.2248     119.7395    4920.5747      11.7866      -0.0077       2.4155       2.2764       1.9378       0.9602       0.6556      78.8520
    9547.5      12.2500    1708.8862    3882.0000     131.6665     289.5632      76.3676     104.1149       0.4670       0.4028       0.4314       1.3646       1.4870       1.3866       1.3502       1.2807       1.2201     119.8200       0.2700      11.7494      -0.0060       2.6009       2.2647       2.0402       1.0007       0.2700      69.7770
    9548.0      12.2500    1711.5642    3869.0000     131.6919     287.8680      75.6232     103.9188       0.4389       0.3794       0.4242       1.3329       1.5848       1.5431       1.3330       1.2635       1.2048     119.7894       0.0900      11.9538      -0.0067       2.6834       2.2620       0.6514       0.3782       0.1765      80.2594
    9548.5      12.2500    1710.7081    3907.0000     131.7055     287.9088      79.3016     113.2596       0.3924       0.3404       0.3962       1.3341       1.5088       1.3577       1.3002       1.2320       1.1766     119.8226       0.0900      13.0053      -0.0079       2.5817       2.2695       0.1414       0.1611       0.1350      77.0985
    9549.0      12.2500    1709.9636    3919.0000     132.9216     293.3602      79.5209     109.6325       0.4143       0.3588       0.3815       1.2521       1.3645       1.2497       1.2555       1.1908       1.1394     119.8220       0.1350      12.0392      -0.0081       2.3677       2.2792       0.1940       0.2075       0.1765      81.5003
    9549.5      12.2500    1713.0220    3916.0000     129.8791     297.1869      81.7182     112.5341       0.4524       0.3907       0.3999       1.1350       1.3719       1.2403       1.2077       1.1514       1.1035     119.8049       0.2700      12.0095      -0.0086       2.1804       2.2802       0.2301       0.2285       0.1391      79.5952
    9550.0      12.2500    1712.6079    3867.0000     129.4813     299.1586      84.7326     116.6853       0.5014       0.4316       0.4337       1.2173       1.3141       1.2005       1.1634       1.1193       1.0742     119.8070       0.0900      12.0095      -0.0093       2.0970       2.2794       0.1286       0.1499       0.1481      83.0231
    9550.5      12.2500    1712.3682    3955.0000     127.9249     299.6767      87.7211     120.8008       0.5140       0.4421       0.4888       1.4119       1.1611       1.1069       1.1259       1.0926       1.0498     119.8579       0.1350      12.0095      -0.0097       2.1231       2.2795       0.5358       0.4204       0.1996      90.5354
    9551.0      12.2500    1711.6268    4016.0000     127.1935     298.4873      91.3172     125.7529       0.5111       0.4397       0.5190       1.5328       1.0310       0.9385       1.1064       1.0812       1.0394     119.8271       0.2700      12.0095      -0.0089       2.2099       2.2825       2.1490       1.3382       0.5737      89.4487
    9551.5      12.2500    1710.7797    3916.0000     127.7233     300.2104      90.7709     125.0006       0.5394       0.4634       0.4937       1.5753       1.0802       1.0068       1.1107       1.0918       1.0494     119.8314       0.2700      12.0095      -0.0086       2.3239       2.2713       1.8189       1.0516       0.5736      94.7768
    9552.0      12.2500    1710.2788    3936.0000     128.1946     302.6959      89.2469     122.9019       0.5328       0.4578       0.4989       1.5225       1.2513       1.1963       1.1341       1.1279       1.0826     119.8347    1361.3827      12.0095      -0.0090       2.4696       2.2588       0.8109       0.4480       0.3060      89.2148
    9552.5      12.2500    1709.2390    3968.0000     127.7378     304.1820      88.8886     122.4084       0.5435       0.4668       0.4836       1.3257       1.2523       1.1797       1.1639       1.1602       1.1127     119.8324    5000.0366      12.0095      -0.0089       2.5919       2.2534       0.8867       0.4728       0.2550      84.6619
    9553.0      12.2500    1708.5181    3926.0000     127.7371     306.7124      90.0149     123.9595       0.5103       0.4391       0.5081       1.2154       1.1844       1.1426       1.1887       1.1907       1.1409     119.8466       0.2700      12.0095      -0.0090       2.6391       2.2611       0.7186       0.4621       0.3278      93.5709
    9553.5      12.2500    1711.1434    3912.0000     128.3121     312.1520      91.8401     126.4730       0.5192       0.4465       0.4793       1.3466       1.2266       1.2104       1.2061       1.2127       1.1614     119.8452    5000.0366      12.0095      -0.0092       2.5940       2.2679       1.6937       0.9226       0.5099      91.5807
    9554.0      12.2500    1710.4611    3882.0000     128.3981     309.6339      91.6042     126.1481       0.5300       0.4555       0.4819       1.5128       1.2290       1.2122       1.2148       1.2251       1.1732     119.8458    3996.0979      12.0095      -0.0096       2.5835       2.2710       2.2100       1.3600       1.5294      90.5500
    9554.5      12.2500    1713.5905    3889.0000     127.8958     309.6548      88.9675     122.4476       0.5286       0.4544       0.4805       1.5269       1.2198       1.1768       1.2129       1.2256       1.1738     119.8284    4206.6519      11.9947      -0.0092       2.6743       2.2703       1.3332       0.7423       0.5737      92.3904
    9555.0      12.2500    1711.3739    3916.0000     127.1732     302.7196      87.1033     119.8478       0.5103       0.4390       0.4970       1.4719       1.2806       1.2784       1.1888       1.2019       1.1527     119.8605    5000.0366      11.9872      -0.0067       2.7674       2.2760       0.5513       0.3827       0.2868      84.7146
    9555.5      12.2500    1716.2074    3845.0000     126.9840     300.2576      87.9230     121.0444       0.4851       0.4179       0.4912       1.4511       1.1891       1.1845       1.1556       1.1709       1.1248     119.8745       0.0900      12.0021      -0.0062       2.7459       2.2763       0.3863       0.3011       0.2185      84.1621
    9556.0      12.2500    1712.2104    3830.0000     127.5177     299.5751      90.7505     124.9724       0.4590       0.3962       0.4674       1.4391       1.0810       1.0666       1.1247       1.1473       1.1033     119.8604       0.1350      12.0095      -0.0068       2.6203       2.2788       0.4293       0.3396       0.2086      94.8495
    9556.5      12.2500    1715.3633    3865.0000     128.1939     300.0771      94.6184     130.2990       0.4474       0.3865       0.4480       1.3876       1.0503       1.0666       1.0948       1.1235       1.0818     119.8456       0.2700      12.0095      -0.0081       2.4889       2.2805       0.3501       0.2830       0.1995      92.8433
    9557.0      12.2500    1715.2837    3885.0000     129.2191     299.7711      93.7344     129.0816       0.4804       0.4141       0.4370       1.3114       0.9840       0.9506       1.0762       1.1095       1.0691     119.8577       0.1350      12.0095      -0.0075       2.4169       2.2880       0.4334       0.3316       0.2549      96.7084
    9557.5      12.2500    1714.9589    3951.0000     129.3712     300.7623      90.2730     124.3149       0.4849       0.4178       0.4623       1.2998       1.0122       1.0131       1.0660       1.0970       1.0578     119.8792       0.2700      12.0095      -0.0070       2.3949       2.2896       1.1993       0.7516       0.3278      91.9646
