~VERSION INFORMATION
VERS.           2.0   :CWLS Log ASCII Standard - VERSION 2.0
WRAP.           NO    :One Line per depth step
PROD.  Schlumberger   :LAS Producer
PROG.  DLIS to ASCII 2.1                               :LAS Program name and version
CREA.                                                  :LAS Creation date {YYYY/MM/DD hh:mm}
SOURCE.     ait_DSI.dlis                               :DLIS File Name
FILE-ID.     HAIT  .018                                :File Identification Number
#--------------------------------------------------
~WELL INFORMATION
#MNEM.UNIT      DATA             DESCRIPTION
#---- ------ --------------   -----------------------------
STRT .F      7672.0          :START DEPTH     
STOP .F      13310.0         :STOP DEPTH     
STEP .F       0.5            :STEP     
NULL .          -999.25      :NULL VALUE
COMP .                                                 :COMPANY
CNTY .                                                 :COUNTY
STAT .                                                 :STATE
CTRY .                                                 :COUNTRY
UWI  .                                                 :UNIQUE WELL ID
DATE .        24-FEB-2000                              :LOG DATE {DD-MMM-YYYY}
SRVC .        Schlumberger                             :SERVICE COMPANY
LATI .DEG                                              :LATITUDE
LONG .DEG                                              :LONGITUDE
GDAT .                                                 :GeoDetic Datum
#-----------------------------------------------------------------------------
~PARAMETER INFORMATION
#MNEM.UNIT    VALUE                      DESCRIPTION
#---- -----   --------------------       ------------------------
TD   .F       13320.00000                :Total Depth
TNDTYP.        CMTD-B/A                  :Tension Device
TREF .LBF     1000.00000                 :Reference Tension of the Cable
DIFF .F          1.00000                 :Maximum Permitted Depth Difference
GGRD .DF/F       0.01000                 :Geothermal Gradient
GDEV .DEG        0.00000                 :Average Angular Deviation of Borehole from Normal
GTSE .        TEMP                       :Generalized Temperature Selection
SHT  .DEGF      67.99998                 :Surface Hole Temperature
BHS  .        OPEN                       :Borehole Status
MATR .        SAND                       :Rock Matrix for Neutron Porosity Corrections
GCSE .        HCAL                       :Generalized Caliper Selection
BHT  .DEGF     120.00000                 :Bottom Hole Temperature (used in calculations)
ETEM .DEGF      76.99998                 :HILT External Temperature
DHC  .        BS                         :Density Hole Correction
MDEN .G/C3       2.65000                 :Matrix Density
FD   .G/C3       1.00000                 :Fluid Density
SOCO .        YES                        :Standoff Correction Option
PTCO .        NO                         :Pressure/Temperature Correction Option
FSCO .        NO                         :Formation Salinity Correction Option
CCCO .        NO                         :Casing & Cement Thickness Correction Option
HSCO .        YES                        :Hole Size Correction Option
MWCO .        NO                         :Mud Weight Correction Option
MCCO .        NO                         :Mud Cake Correction Option
BSCO .        NO                         :Borehole Salinity Correction Option
SOCN .IN         0.12500                 :Standoff Distance
MCOR .        BARI                       :Mud Correction
BHFL .        WATER                      :Borehole Fluid Type
TIVD .F       11128.16992                :TVD of Tie-in Point
SPVD .F          0.00000                 :TVD of Starting Point
CD   .F          0.00000                 :Casing Shoe Depth
NLS  .                                   :Nominal Logging Speed
AMD  .DEG       96.63000                 :Azimuth of Maximum Deviation
STEM .DEGF      70.00000                 :Surface Temperature
TWS  .DEGF     100.00000                 :Temperature of Connate Water Sample
RW   .OHMM       1.00000                 :Resistivity of Connate Water
BPT  .                                   :Bubble Point Temperature
BSAL .PPM     62000.00000                :Borehole Salinity
MRT  .DEGF     120.00000                 :Maximum Recorded Temperature
RMFB .                                   :Resistivity of Mud Filtrate - BHT
RMB  .                                   :Resistivity of Mud - BHT
MCST .                                   :Mud Cake Sample Temperature
RMCS .                                   :Resistivity of Mud Cake Sample
MFST .                                   :Mud Filtrate Sample Temperature
RMFS .                                   :Resistivity of Mud Filtrate Sample
MST  .                                   :Mud Sample Temperature
RMS  .                                   :Resistivity of Mud Sample
DFPH .           8.40000                 :Drilling Fluid PH
DFL  .C3         0.00000                 :Drilling Fluid Loss
DFV  .S         71.00000                 :Drilling Fluid Viscosity
DFD  .LB/G      12.40000                 :Drilling Fluid Density
CWEI .LB/F      68.00000                 :Casing Weight
CSIZ .IN        13.37500                 :Current Casing Size
BS   .IN        12.25000                 :Bit Size
MHD  .DEG        6.79000                 :Maximum Hole Deviation
FLEV .F         10.00000                 :Fluid Level
CBLO .F       7966.00000                 :Casing Bottom of Logger
CBDR .F       7961.00000                 :Casing Bottom of Driller
CADT .                                   :Casing Depth To
CDF  .                                   :Casing Depth From
BSDT .                                   :Bit Size Depth To
BSDF .                                   :Bit Size Depth From
BLI  .F       13296.00000                :Bottom Log Interval
TDL  .F       13302.00000                :Total Depth - Logger
TDD  .F       13320.00000                :Total Depth - Driller
APD  .F         82.00000                 :Above Permanent Datum
EPD  .F          0.00000                 :Elevation of Permanent Datum
ELZ  .F         82.00000                 :Elevation of Log Zero
EDF  .F         82.00000                 :Elevation of Derrick Floor
EGL  .F       -3644.00000                :Elevation of Ground Level
EKB  .F         82.00000                 :Elevation of Kelly Bushing
LCC  .               440                 :Logging Company Code
MCSS .                                   :Mud Cake Sample Source
MFSS .                                   :Mud Filtrate Sample Source
MSS  .                                   :Mud Sample Source
TCS  .        18 00                      :Time Circulation Stopped
DCS  .                                   :Date Circulation Stopped
DFT  .        Oil Based Mud              :Drilling Fluid Type
CASG .                                   :Casing Grade
ENGI .                                   :Engineer's Name
TLAB .        11 00                      :Time Logger At Bottom
DLAB .                                   :Date Logger At Bottom
DATE .                                   :Date as Month-Day-Year
DMF  .        RKB                        :Drilling Measured From
LMF  .        RKB                        :Log Measured From
PDAT .        MSL                        :Permanent Datum
LCL  .F            23900                 :Logging Cable Length
RUN  .          1                        :RUN NUMBER
#-----------------------------------------------------------------------------
~CURVE INFORMATION
#MNEM.UNIT   API CODE                                  DESCRIPTION
#---- -----  --------                                  -----------------------
DEPT .F                                                :DEPTH (BOREHOLE) {F10.1}
BS   .IN                                               :Bit Size {F13.4}
CS   .F/HR                                             :Cable Speed {F13.4}
TENS .LBF                                              :Cable Tension {F13.4}
DTCO .US/F                                             :Delta-T Compressional {F13.4}
DTSM .US/F                                             :Delta-T Shear {F13.4}
GR   .GAPI                                             :Calibrated Gamma-Ray SC {F13.4}
ECGR .GAPI                                             :Gamma-Ray {F13.4}
NPHI .CFCF                                             :Thermal Neutron Porosity (Ratio Method, Sandstone matrix) {F13.4}
NPL  .CFCF                                             :Neutron Porosity Limestone {F13.4}
TNPH .CFCF                                             :Thermal Neutron Porosity (Sandstone matrix with EC corrections) {F13.4}
GDEV .DEG                                              :HGNS Deviation {F13.4}
AHO10.OHMM                                             :Array Induction One Foot Resistivity A10 {F13.4}
AHO20.OHMM                                             :Array Induction One Foot Resistivity A20 {F13.4}
AHF30.OHMM                                             :Array Induction Four Foot Resistivity A30 {F13.4}
AHF60.OHMM                                             :Array Induction Four Foot Resistivity A60 {F13.4}
AHF90.OHMM                                             :Array Induction Four Foot Resistivity A90 {F13.4}
AHTCA.DEGF                                             :Array Induction Array Temperature Calibrated {F13.4}
RXOI .OHMM                                             :MCFL Very High Resolution Invaded Zone Resistivity {F13.4}
HCAL .IN                                               :HRCC Cal. caliper SC {F13.4}
HDRA .G/C3                                             :HRDD Density Correction {F13.4}
PEFZ .                                                 :HRDD Standard Resolution Formation Photoelectric Factor {F13.4}
RHOZ .G/C3                                             :HRDD Standard Resolution Formation Density {F13.4}
HMIN .OHMM                                             :MCFL Micro Inverse Resistivity {F13.4}
HMNO .OHMM                                             :MCFL Micro Normal Resistivity {F13.4}
RXOZ .OHMM                                             :MCFL Standard Resolution Invaded Zone Resistivity {F13.4}
HGR  .GAPI                                             :Hires Calibrated Gamma-Ray SC {F13.4}
#-----------------------------------------------------------------------------
# 
#     DEPT        BS           CS           TENS         DTCO         DTSM         GR           ECGR         NPHI         NPL          TNPH         GDEV        AHO10        AHO20        AHF30        AHF60        AHF90        AHTCA         RXOI         HCAL         HDRA         PEFZ         RHOZ         HMIN         HMNO         RXOZ         HGR
#
~A  
# ...
   13295.5      12.2500    1528.3397    4948.0000     104.4859     254.9077      63.0445      53.8480       0.4600       0.3970       0.3639    -999.2500       0.8540       0.7102       0.7257       0.7850       0.8197     131.1800    4689.8843       4.1400       0.0097       6.4196       2.3086    1210.4707    1112.7802    4689.8813      63.0445
   13296.0      12.2500    1516.0526    4986.0000     109.2196     254.9077      63.0445      53.8480       0.4600       0.3970       0.3639    -999.2500       0.8563       0.7081       0.7202       0.7776       0.8109     131.1735    4689.8843       4.1400       0.0098       6.3931       2.3091    1210.4709    1112.7804    4689.8813      63.0445
   13296.5      12.2500    1501.9067    4955.0000     109.2196     254.9077      63.0445      53.8480       0.4600       0.3970       0.3639    -999.2500       0.8616       0.7085       0.7177       0.7743       0.8067     131.1303    4689.8843       4.1400       0.0099       6.3617       2.3096    1210.4709    1112.7804    4689.8813      63.0445
   13297.0      12.2500    1492.6677    4858.0000     109.2196     254.9077      63.0445      53.8480       0.4600       0.3970       0.3639    -999.2500       0.8607       0.7044       0.7175       0.7744       0.8060     131.1646    4689.8843       4.1400       0.0101       6.3243       2.3103    1210.4707    1112.7802    4689.8813      63.0445
   13297.5      12.2500    1482.1089    4827.0000     109.2196     254.9077      63.0445      53.8480       0.4600       0.3970       0.3639    -999.2500       0.8670       0.7103       0.7190       0.7766       0.8078     131.1987    4689.8843       4.1400       0.0104       6.2794       2.3111    1210.4709    1112.7804    4689.8813      63.0445
   13298.0      12.2500    1473.0205    4862.0000     109.2196     254.9077      63.0445      53.8480       0.4600       0.3970       0.3639    -999.2500       0.8726       0.7143       0.7212       0.7798       0.8106     131.1565    4689.8843       4.1400       0.0108       6.2236       2.3122    1210.4709    1112.7804    4689.8813      63.0445
   13298.5      12.2500    1474.6475    4814.0000     109.2196     254.9077      63.0445      53.8480       0.4600       0.3970       0.3639    -999.2500       0.8740       0.7154       0.7233       0.7825       0.8130     131.1517    4689.8843       4.1400       0.0111       6.1530       2.3133    1210.4707    1112.7802    4689.8813      63.0445
   13299.0      12.2500    1473.5840    4810.0000     109.2196     254.9077      63.0445      53.8480       0.4600       0.3970       0.3639    -999.2500       0.8727       0.7150       0.7248       0.7842       0.8143     131.1679    4689.8843       4.1400       0.0113       6.0640       2.3145    1210.4709    1112.7804    4689.8813      63.0445
   13299.5      12.2500    1472.5428    4662.0000     109.2196     254.9077      63.0445      53.8480       0.4600       0.3970       0.3639    -999.2500       0.8727       0.7145       0.7256       0.7848       0.8146     131.1887    4689.8843       4.1400       0.0115       5.9530       2.3159    1210.4709    1112.7804    4689.8813      63.0445
   13300.0      12.2500    1474.1863    4738.0000     109.2196     254.9077      63.0445      53.8480       0.4600       0.3970       0.3639    -999.2500       0.8711       0.7127       0.7260       0.7848       0.8141     131.1977    4689.8843       4.1400       0.0118       5.8045       2.3178    1210.4707    1112.7802    4689.8813      63.0445
   13300.5      12.2500    1473.0570    4844.0000     109.2196     254.9077      63.0445      53.8480       0.4600       0.3970       0.3639    -999.2500       0.8675       0.7151       0.7260       0.7845       0.8135     131.1665    4689.8843       4.1400       0.0123       5.6105       2.3201    1210.4709    1112.7804    4689.8813      63.0445
   13301.0      12.2500    1471.7664    4789.0000     109.2196     254.9077      63.0445      53.8480       0.4600       0.3970       0.3639    -999.2500       0.8754       0.7117       0.7261       0.7843       0.8130     131.1964    4689.8843       4.1400       0.0128       5.3762       2.3229    1210.4709    1112.7804    4689.8813      63.0445
   13301.5      12.2500    1470.3784    4781.0000     109.2196     254.9077      63.0445      53.8480       0.4600       0.3970       0.3639    -999.2500       0.8710       0.7174       0.7261       0.7844       0.8128     131.2070    4689.8843       4.1400       0.0132       5.1424       2.3261    1210.4707    1112.7802    4689.8813      63.0445
   13302.0      12.2500    1471.7126    4807.0000     109.2196     254.9077      63.0445      53.8480       0.4600       0.3970       0.3639    -999.2500       0.8740       0.7153       0.7262       0.7846       0.8129     131.1645    4689.8843       4.1400       0.0137       4.9412       2.3302    1210.4709    1112.7804    4689.8813      63.0445
   13302.5      12.2500    1475.9133    4850.0000     109.2196     254.9077      63.0445      53.8480       0.4600       0.3970       0.3639    -999.2500       0.8713       0.7145       0.7264       0.7851       0.8133     131.1599    4689.8843       4.1400       0.0139       4.7819       2.3350    1210.4709    1112.7804    4689.8813      63.0445
   13303.0      12.2500    1477.9535    4698.0000     109.2196     254.9077      63.0445      53.8480       0.4600       0.3970       0.3639    -999.2500       0.8723       0.7156       0.7267       0.7855       0.8136     131.1266    4689.8843       4.1400       0.0135       4.6429       2.3405    1210.4707    1112.7802    4689.8813      63.0445
   13303.5      12.2500    1477.3623    4588.0000     109.2196     254.9077      63.0445      53.8480       0.4600       0.3970       0.3639    -999.2500       0.8722       0.7153       0.7268       0.7857       0.8138     131.1476    4689.8843       4.1400       0.0123       4.5020       2.3470    1210.4709    1112.7804    4689.8813      63.0445
   13304.0      12.2500    1476.8608    4562.0000     109.2196     254.9077      63.0445      53.8480       0.4600       0.3970       0.3639    -999.2500       0.8722       0.7155       0.7269       0.7858       0.8138     131.1558    4689.8843       4.1400       0.2967       4.3435       2.3585    1210.4709    1112.7804    4689.8813      63.0445
   13304.5      12.2500    1479.0364    4543.0000     109.2196     254.9077      63.0445      53.8480       0.4600       0.3970       0.3639    -999.2500       0.8719       0.7152       0.7268       0.7858       0.8137     131.1236    4689.8843       4.1400       1.1619       4.1428       2.3831    1210.4707    1112.7802    4689.8813      63.0445
   13305.0      12.2500    1478.6000    4406.0000     109.2196     254.9077      63.0445      53.8480       0.4600       0.3970       0.3639    -999.2500       0.8717       0.7150       0.7268       0.7857       0.8136     131.1236    4689.8843       4.1400       2.0464       3.9454       2.4236    1210.4709    1112.7804    4689.8813      63.0445
   13305.5      12.2500    1478.1884    4316.0000     109.2196     254.9077      63.0445      53.8480       0.4600       0.3970       0.3639    -999.2500       0.8716       0.7149       0.7267       0.7856       0.8134     131.1236    4689.8843       4.1400    -999.2500    -999.2500    -999.2500    1210.4709    1112.7804    4689.8813      63.0445
   13306.0      12.2500    1474.7147    4288.0000     109.2196     254.9077      63.0445      53.8480       0.4600       0.3970       0.3639    -999.2500       0.8716       0.7149       0.7266       0.7855       0.8133     131.1236    4689.8843       4.1400    -999.2500    -999.2500    -999.2500    1210.4707    1112.7802    4689.8813      63.0445
   13306.5      12.2500    1476.7531    4243.0000     109.2196     254.9077      63.0445      53.8480       0.4600       0.3970       0.3639    -999.2500       0.8717       0.7150       0.7266       0.7854       0.8132     131.1236    4689.8843       4.1400    -999.2500    -999.2500    -999.2500    1210.4709    1112.7804    4689.8813      63.0445
