~VERSION INFORMATION
VERS.           2.0   :CWLS Log ASCII Standard - VERSION 2.0
WRAP.           NO    :One Line per depth step
PROD.  Schlumberger   :LAS Producer
PROG.  DLIS to ASCII 2.1                               :LAS Program name and version
CREA.                                                  :LAS Creation date {YYYY/MM/DD hh:mm}
SOURCE.     ait_DSI.dlis                               :DLIS File Name
FILE-ID.     HAIT  .018                                :File Identification Number
#--------------------------------------------------
~WELL INFORMATION
#MNEM.UNIT      DATA             DESCRIPTION
#---- ------ --------------   -----------------------------
STRT .F      7672.0          :START DEPTH     
STOP .F      13310.0         :STOP DEPTH     
STEP .F       0.5            :STEP     
NULL .          -999.25      :NULL VALUE
COMP .                                                 :COMPANY
CNTY .                                                 :COUNTY
STAT .                                                 :STATE
CTRY .                                                 :COUNTRY
UWI  .                                                 :UNIQUE WELL ID
DATE .        24-FEB-2000                              :LOG DATE {DD-MMM-YYYY}
SRVC .        Schlumberger                             :SERVICE COMPANY
LATI .DEG                                              :LATITUDE
LONG .DEG                                              :LONGITUDE
GDAT .                                                 :GeoDetic Datum
#-----------------------------------------------------------------------------
~PARAMETER INFORMATION
#MNEM.UNIT    VALUE                      DESCRIPTION
#---- -----   --------------------       ------------------------
TD   .F       13320.00000                :Total Depth
TNDTYP.        CMTD-B/A                  :Tension Device
TREF .LBF     1000.00000                 :Reference Tension of the Cable
DIFF .F          1.00000                 :Maximum Permitted Depth Difference
GGRD .DF/F       0.01000                 :Geothermal Gradient
GDEV .DEG        0.00000                 :Average Angular Deviation of Borehole from Normal
GTSE .        TEMP                       :Generalized Temperature Selection
SHT  .DEGF      67.99998                 :Surface Hole Temperature
BHS  .        OPEN                       :Borehole Status
MATR .        SAND                       :Rock Matrix for Neutron Porosity Corrections
GCSE .        HCAL                       :Generalized Caliper Selection
BHT  .DEGF     120.00000                 :Bottom Hole Temperature (used in calculations)
ETEM .DEGF      76.99998                 :HILT External Temperature
DHC  .        BS                         :Density Hole Correction
MDEN .G/C3       2.65000                 :Matrix Density
FD   .G/C3       1.00000                 :Fluid Density
SOCO .        YES                        :Standoff Correction Option
PTCO .        NO                         :Pressure/Temperature Correction Option
FSCO .        NO                         :Formation Salinity Correction Option
CCCO .        NO                         :Casing & Cement Thickness Correction Option
HSCO .        YES                        :Hole Size Correction Option
MWCO .        NO                         :Mud Weight Correction Option
MCCO .        NO                         :Mud Cake Correction Option
BSCO .        NO                         :Borehole Salinity Correction Option
SOCN .IN         0.12500                 :Standoff Distance
MCOR .        BARI                       :Mud Correction
BHFL .        WATER                      :Borehole Fluid Type
TIVD .F       11128.16992                :TVD of Tie-in Point
SPVD .F          0.00000                 :TVD of Starting Point
CD   .F          0.00000                 :Casing Shoe Depth
NLS  .                                   :Nominal Logging Speed
AMD  .DEG       96.63000                 :Azimuth of Maximum Deviation
STEM .DEGF      70.00000                 :Surface Temperature
TWS  .DEGF     100.00000                 :Temperature of Connate Water Sample
RW   .OHMM       1.00000                 :Resistivity of Connate Water
BPT  .                                   :Bubble Point Temperature
BSAL .PPM     62000.00000                :Borehole Salinity
MRT  .DEGF     120.00000                 :Maximum Recorded Temperature
RMFB .                                   :Resistivity of Mud Filtrate - BHT
RMB  .                                   :Resistivity of Mud - BHT
MCST .                                   :Mud Cake Sample Temperature
RMCS .                                   :Resistivity of Mud Cake Sample
MFST .                                   :Mud Filtrate Sample Temperature
RMFS .                                   :Resistivity of Mud Filtrate Sample
MST  .                                   :Mud Sample Temperature
RMS  .                                   :Resistivity of Mud Sample
DFPH .           8.40000                 :Drilling Fluid PH
DFL  .C3         0.00000                 :Drilling Fluid Loss
DFV  .S         71.00000                 :Drilling Fluid Viscosity
DFD  .LB/G      12.40000                 :Drilling Fluid Density
CWEI .LB/F      68.00000                 :Casing Weight
CSIZ .IN        13.37500                 :Current Casing Size
BS   .IN        12.25000                 :Bit Size
MHD  .DEG        6.79000                 :Maximum Hole Deviation
FLEV .F         10.00000                 :Fluid Level
CBLO .F       7966.00000                 :Casing Bottom of Logger
CBDR .F       7961.00000                 :Casing Bottom of Driller
CADT .                                   :Casing Depth To
CDF  .                                   :Casing Depth From
BSDT .                                   :Bit Size Depth To
BSDF .                                   :Bit Size Depth From
BLI  .F       13296.00000                :Bottom Log Interval
TDL  .F       13302.00000                :Total Depth - Logger
TDD  .F       13320.00000                :Total Depth - Driller
APD  .F         82.00000                 :Above Permanent Datum
EPD  .F          0.00000                 :Elevation of Permanent Datum
ELZ  .F         82.00000                 :Elevation of Log Zero
EDF  .F         82.00000                 :Elevation of Derrick Floor
EGL  .F       -3644.00000                :Elevation of Ground Level
EKB  .F         82.00000                 :Elevation of Kelly Bushing
LCC  .               440                 :Logging Company Code
MCSS .                                   :Mud Cake Sample Source
MFSS .                                   :Mud Filtrate Sample Source
MSS  .                                   :Mud Sample Source
TCS  .        18 00                      :Time Circulation Stopped
DCS  .                                   :Date Circulation Stopped
DFT  .        Oil Based Mud              :Drilling Fluid Type
CASG .                                   :Casing Grade
ENGI .                                   :Engineer's Name
TLAB .        11 00                      :Time Logger At Bottom
DLAB .                                   :Date Logger At Bottom
DATE .                                   :Date as Month-Day-Year
DMF  .        RKB                        :Drilling Measured From
LMF  .        RKB                        :Log Measured From
PDAT .        MSL                        :Permanent Datum
LCL  .F            23900                 :Logging Cable Length
RUN  .          1                        :RUN NUMBER
#-----------------------------------------------------------------------------
~CURVE INFORMATION
#MNEM.UNIT   API CODE                                  DESCRIPTION
#---- -----  --------                                  -----------------------
DEPT .F                                                :DEPTH (BOREHOLE) {F10.1}
BS   .IN                                               :Bit Size {F13.4}
CS   .F/HR                                             :Cable Speed {F13.4}
TENS .LBF                                              :Cable Tension {F13.4}
DTCO .US/F                                             :Delta-T Compressional {F13.4}
DTSM .US/F                                             :Delta-T Shear {F13.4}
GR   .GAPI                                             :Calibrated Gamma-Ray SC {F13.4}
ECGR .GAPI                                             :Gamma-Ray {F13.4}
NPHI .CFCF                                             :Thermal Neutron Porosity (Ratio Method, Sandstone matrix) {F13.4}
NPL  .CFCF                                             :Neutron Porosity Limestone {F13.4}
TNPH .CFCF                                             :Thermal Neutron Porosity (Sandstone matrix with EC corrections) {F13.4}
GDEV .DEG                                              :HGNS Deviation {F13.4}
AHO10.OHMM                                             :Array Induction One Foot Resistivity A10 {F13.4}
AHO20.OHMM                                             :Array Induction One Foot Resistivity A20 {F13.4}
AHF30.OHMM                                             :Array Induction Four Foot Resistivity A30 {F13.4}
AHF60.OHMM                                             :Array Induction Four Foot Resistivity A60 {F13.4}
AHF90.OHMM                                             :Array Induction Four Foot Resistivity A90 {F13.4}
AHTCA.DEGF                                             :Array Induction Array Temperature Calibrated {F13.4}
RXOI .OHMM                                             :MCFL Very High Resolution Invaded Zone Resistivity {F13.4}
HCAL .IN                                               :HRCC Cal. caliper SC {F13.4}
HDRA .G/C3                                             :HRDD Density Correction {F13.4}
PEFZ .                                                 :HRDD Standard Resolution Formation Photoelectric Factor {F13.4}
RHOZ .G/C3                                             :HRDD Standard Resolution Formation Density {F13.4}
HMIN .OHMM                                             :MCFL Micro Inverse Resistivity {F13.4}
HMNO .OHMM                                             :MCFL Micro Normal Resistivity {F13.4}
RXOZ .OHMM                                             :MCFL Standard Resolution Invaded Zone Resistivity {F13.4}
HGR  .GAPI                                             :Hires Calibrated Gamma-Ray SC {F13.4}
#-----------------------------------------------------------------------------
# 
#     DEPT        BS           CS           TENS         DTCO         DTSM         GR           ECGR         NPHI         NPL          TNPH         GDEV        AHO10        AHO20        AHF30        AHF60        AHF90        AHTCA         RXOI         HCAL         HDRA         PEFZ         RHOZ         HMIN         HMNO         RXOZ         HGR
#
~A  
# ...
   11800.5      12.2500    1730.5483    4721.0000     115.7158     263.1849      82.1571     115.6082       0.5655       0.4853       0.4990       6.5681       0.9727       0.9571       1.0069       0.9814       0.9433     133.0351    4197.0308      12.5891      -0.0076       2.4015       2.2951       1.6271       1.1568       0.7649      78.2687
   11801.0      12.2500    1732.6381    4648.0000     115.4336     263.6692      78.9954     110.5265       0.5233       0.4499       0.4861       6.5694       0.9739       0.9706       1.0108       0.9885       0.9500     133.0042       0.1350      12.4331      -0.0089       2.2741       2.3078       1.7070       0.8205       0.5737      91.4259
   11801.5      12.2500    1730.9884    4685.0000     115.8791     258.8846      80.6676     113.0513       0.4190       0.3627       0.4451       6.5593       0.9988       0.9705       1.0187       0.9993       0.9598     133.0546       0.2700      12.4777      -0.0067       2.0588       2.3272       1.9797       1.2782       0.3825      68.1513
   11802.0      12.2500    1729.1030    4710.0000     116.1467     261.1230      76.0287     107.4597       0.3994       0.3463       0.3890       6.5351       1.1070       1.0735       1.0276       1.0089       0.9687     133.0378       0.2700      12.7117      -0.0051       1.8606       2.3459       0.4477       0.3376       0.2295      83.3641
   11802.5      12.2500    1730.9863    4631.0000     115.7293     261.6938      85.6906     121.5838       0.4181       0.3619       0.4063       6.5064       1.1112       1.1168       1.0319       1.0169       0.9760     133.0693       0.2700      12.8195      -0.0024       1.7785       2.3562       0.6360       0.3732       0.2416      77.2157
   11803.0      12.2500    1733.1387    4574.0000     114.7140     265.6049      82.8230     117.4372       0.4611       0.3979       0.4233       6.5245       1.0351       1.0275       1.0298       1.0155       0.9747     133.0371    4491.6270      12.8009      -0.0027       1.8966       2.3502       1.3470       0.7997       0.4589      98.0561
   11803.5      12.2500    1731.5604    4616.0000     115.2072     264.4258      82.7707     116.9420       0.4662       0.4022       0.4484       6.5675       1.0082       0.9949       1.0228       1.0078       0.9676     133.0539    3828.1113      12.7006      -0.0046       2.1205       2.3347      41.6798      59.5170    3309.9976      74.1233
   11804.0      12.2500    1728.7872    4631.0000     115.1437     267.7303      75.6597     106.1774       0.4507       0.3892       0.4396       6.5670       1.0276       1.0169       1.0136       0.9978       0.9583     133.0545    2996.7549      12.5148      -0.0065       2.3080       2.3219      40.2282      57.7989    3498.3005      77.7423
   11804.5      12.2500    1726.8286    4676.0000     115.6214     271.2068      79.4062     111.4199       0.4464       0.3856       0.4195       6.5139       1.0265       1.0101       1.0050       0.9888       0.9499     133.0559    3719.6292      12.5111      -0.0087       2.3327       2.3097      40.3343      57.9922    3603.0510      75.8032
   11805.0      12.2500    1728.8534    4596.0000     115.9919     271.6620      78.1961     109.6772       0.4649       0.4011       0.4131       6.5054       1.0130       0.9984       0.9977       0.9822       0.9437     133.0679    4213.2041      12.5000      -0.0080       2.1903       2.3030      62.8820      89.6319    3821.8406      85.5949
   11805.5      12.2500    1726.6630    4643.0000     116.9340     272.9268      78.8070     110.7443       0.4416       0.3816       0.4237       6.5273       0.9972       0.9773       0.9922       0.9776       0.9394     133.0499    4333.3447      12.5520      -0.0072       1.9859       2.3005      68.1015      97.7829     496.9452      73.4207
   11806.0      12.2500    1728.1976    4699.0000     116.8096     273.4461      75.0605     105.7932       0.4479       0.3869       0.4146       6.5495       0.9772       0.9695       0.9898       0.9763       0.9380     133.0653      80.3797      12.6337      -0.0041       1.8316       2.3144      31.9592      43.4505       0.6548      77.7953
   11806.5      12.2500    1726.1548    4578.0000     116.0860     275.1957      75.1730     106.4629       0.4860       0.4187       0.4318       6.5337       0.9742       0.9615       0.9931       0.9793       0.9407     133.0505       0.2700      12.7675      -0.0033       1.8225       2.3249       1.7599       0.8067       0.5094      74.1233
   11807.0      12.2500    1731.0726    4621.0000     115.9481     269.7643      76.8122     108.1455       0.5227       0.4494       0.4662       6.5334       1.0013       0.9814       1.0018       0.9919       0.9521     133.0391    3382.4873      12.6040      -0.0034       1.9220       2.3341       1.1358       0.6616       0.5099      73.8184
   11807.5      12.2500    1729.1993    4648.0000     115.7986     268.9899      75.7027     106.3242       0.5124       0.4408       0.5100       6.5212       1.0362       1.0155       1.0125       1.0000       0.9595     133.0713    5000.0366      12.5371      -0.0039       2.0159       2.3397       1.9758       1.0248       0.5737      82.5544
   11808.0      12.2500    1730.8625    4626.0000     115.1504     273.9067      78.1663     109.5907       0.5065       0.4358       0.4839       6.5043       1.0541       1.0369       1.0226       1.0078       0.9664     133.0713       0.2700      12.4888      -0.0031       1.9987       2.3488       2.0197       0.9131       0.3825      70.7506
   11808.5      12.2500    1728.9592    4631.0000     116.4830     266.8183      77.1125     108.4510       0.4965       0.4275       0.4738       6.4832       1.0515       1.0450       1.0314       1.0151       0.9729     133.1353    3303.9209      12.5743      -0.0043       1.8571       2.3499       0.9885       0.5707       0.2086      81.1492
   11809.0      12.2500    1726.7839    4552.0000     115.6939     267.7729      78.5159     110.8120       0.5146       0.4427       0.4608       6.5083       1.0195       1.0033       1.0410       1.0229       0.9801     133.1176       0.0900      12.6709      -0.0075       1.6505       2.3436       0.2728       0.2476       0.2416      79.3927
   11809.5      12.2500    1724.2979    4686.0000     114.2164     266.0570      77.3450     109.1008       0.4725       0.4074       0.4779       6.5453       1.0483       1.0394       1.0510       1.0298       0.9864     133.0669    5000.0366      12.6560      -0.0085       1.4768       2.3453       1.2836       0.6488       0.2869      74.9699
   11810.0      12.2500    1725.2607    4740.0000     114.5676     265.4869      76.2911     107.8162       0.4559       0.3936       0.4518       6.5376       1.0959       1.0844       1.0596       1.0377       0.9937     133.0981    4300.6353      12.7080      -0.0086       1.4223       2.3450       1.5905       1.1444       1.5295      77.6363
   11810.5      12.2500    1727.0616    4655.0000     114.7337     263.2966      75.1945     106.1954       0.4497       0.3883       0.4350       6.4871       1.0934       1.0761       1.0686       1.0454       1.0007     133.1142    4128.1963      12.6895      -0.0083       1.5127       2.3435      36.8205      53.0442       2.2937      76.2311
   11811.0      12.2500    1724.3737    4592.0000     114.5092     258.9198      75.7800     106.6922       0.4393       0.3796       0.4221       6.4679       1.0998       1.0735       1.0769       1.0531       1.0082     133.0659    4225.2393      12.6040      -0.0096       1.6521       2.3382       1.7358       1.1920       2.2935      71.4067
   11811.5      12.2500    1721.3016    4638.0000     114.3884     260.0478      81.8691     115.1096       0.4452       0.3846       0.4107       6.4949       1.1153       1.0920       1.0844       1.0594       1.0140     133.0652    4366.5903      12.5668      -0.0084       1.7031       2.3465       2.6388       2.0261       0.9178      79.3927
