~VERSION INFORMATION
VERS.           2.0   :CWLS Log ASCII Standard - VERSION 2.0
WRAP.           NO    :One Line per depth step
PROD.  Schlumberger   :LAS Producer
PROG.  DLIS to ASCII 2.1                               :LAS Program name and version
CREA.                                                  :LAS Creation date {YYYY/MM/DD hh:mm}
SOURCE.     ait_DSI.dlis                               :DLIS File Name
FILE-ID.     HAIT  .018                                :File Identification Number
#--------------------------------------------------
~WELL INFORMATION
#MNEM.UNIT      DATA             DESCRIPTION
#---- ------ --------------   -----------------------------
STRT .F      7672.0          :START DEPTH     
STOP .F      13310.0         :STOP DEPTH     
STEP .F       0.5            :STEP     
NULL .          -999.25      :NULL VALUE
COMP .                                                 :COMPANY
CNTY .                                                 :COUNTY
STAT .                                                 :STATE
CTRY .                                                 :COUNTRY
UWI  .                                                 :UNIQUE WELL ID
DATE .        24-FEB-2000                              :LOG DATE {DD-MMM-YYYY}
SRVC .        Schlumberger                             :SERVICE COMPANY
LATI .DEG                                              :LATITUDE
LONG .DEG                                              :LONGITUDE
GDAT .                                                 :GeoDetic Datum
#-----------------------------------------------------------------------------
~PARAMETER INFORMATION
#MNEM.UNIT    VALUE                      DESCRIPTION
#---- -----   --------------------       ------------------------
TD   .F       13320.00000                :Total Depth
TNDTYP.        CMTD-B/A                  :Tension Device
TREF .LBF     1000.00000                 :Reference Tension of the Cable
DIFF .F          1.00000                 :Maximum Permitted Depth Difference
GGRD .DF/F       0.01000                 :Geothermal Gradient
GDEV .DEG        0.00000                 :Average Angular Deviation of Borehole from Normal
GTSE .        TEMP                       :Generalized Temperature Selection
SHT  .DEGF      67.99998                 :Surface Hole Temperature
BHS  .        OPEN                       :Borehole Status
MATR .        SAND                       :Rock Matrix for Neutron Porosity Corrections
GCSE .        HCAL                       :Generalized Caliper Selection
BHT  .DEGF     120.00000                 :Bottom Hole Temperature (used in calculations)
ETEM .DEGF      76.99998                 :HILT External Temperature
DHC  .        BS                         :Density Hole Correction
MDEN .G/C3       2.65000                 :Matrix Density
FD   .G/C3       1.00000                 :Fluid Density
SOCO .        YES                        :Standoff Correction Option
PTCO .        NO                         :Pressure/Temperature Correction Option
FSCO .        NO                         :Formation Salinity Correction Option
CCCO .        NO                         :Casing & Cement Thickness Correction Option
HSCO .        YES                        :Hole Size Correction Option
MWCO .        NO                         :Mud Weight Correction Option
MCCO .        NO                         :Mud Cake Correction Option
BSCO .        NO                         :Borehole Salinity Correction Option
SOCN .IN         0.12500                 :Standoff Distance
MCOR .        BARI                       :Mud Correction
BHFL .        WATER                      :Borehole Fluid Type
TIVD .F       11128.16992                :TVD of Tie-in Point
SPVD .F          0.00000                 :TVD of Starting Point
CD   .F          0.00000                 :Casing Shoe Depth
NLS  .                                   :Nominal Logging Speed
AMD  .DEG       96.63000                 :Azimuth of Maximum Deviation
STEM .DEGF      70.00000                 :Surface Temperature
TWS  .DEGF     100.00000                 :Temperature of Connate Water Sample
RW   .OHMM       1.00000                 :Resistivity of Connate Water
BPT  .                                   :Bubble Point Temperature
BSAL .PPM     62000.00000                :Borehole Salinity
MRT  .DEGF     120.00000                 :Maximum Recorded Temperature
RMFB .                                   :Resistivity of Mud Filtrate - BHT
RMB  .                                   :Resistivity of Mud - BHT
MCST .                                   :Mud Cake Sample Temperature
RMCS .                                   :Resistivity of Mud Cake Sample
MFST .                                   :Mud Filtrate Sample Temperature
RMFS .                                   :Resistivity of Mud Filtrate Sample
MST  .                                   :Mud Sample Temperature
RMS  .                                   :Resistivity of Mud Sample
DFPH .           8.40000                 :Drilling Fluid PH
DFL  .C3         0.00000                 :Drilling Fluid Loss
DFV  .S         71.00000                 :Drilling Fluid Viscosity
DFD  .LB/G      12.40000                 :Drilling Fluid Density
CWEI .LB/F      68.00000                 :Casing Weight
CSIZ .IN        13.37500                 :Current Casing Size
BS   .IN        12.25000                 :Bit Size
MHD  .DEG        6.79000                 :Maximum Hole Deviation
FLEV .F         10.00000                 :Fluid Level
CBLO .F       7966.00000                 :Casing Bottom of Logger
CBDR .F       7961.00000                 :Casing Bottom of Driller
CADT .                                   :Casing Depth To
CDF  .                                   :Casing Depth From
BSDT .                                   :Bit Size Depth To
BSDF .                                   :Bit Size Depth From
BLI  .F       13296.00000                :Bottom Log Interval
TDL  .F       13302.00000                :Total Depth - Logger
TDD  .F       13320.00000                :Total Depth - Driller
APD  .F         82.00000                 :Above Permanent Datum
EPD  .F          0.00000                 :Elevation of Permanent Datum
ELZ  .F         82.00000                 :Elevation of Log Zero
EDF  .F         82.00000                 :Elevation of Derrick Floor
EGL  .F       -3644.00000                :Elevation of Ground Level
EKB  .F         82.00000                 :Elevation of Kelly Bushing
LCC  .               440                 :Logging Company Code
MCSS .                                   :Mud Cake Sample Source
MFSS .                                   :Mud Filtrate Sample Source
MSS  .                                   :Mud Sample Source
TCS  .        18 00                      :Time Circulation Stopped
DCS  .                                   :Date Circulation Stopped
DFT  .        Oil Based Mud              :Drilling Fluid Type
CASG .                                   :Casing Grade
ENGI .                                   :Engineer's Name
TLAB .        11 00                      :Time Logger At Bottom
DLAB .                                   :Date Logger At Bottom
DATE .                                   :Date as Month-Day-Year
DMF  .        RKB                        :Drilling Measured From
LMF  .        RKB                        :Log Measured From
PDAT .        MSL                        :Permanent Datum
LCL  .F            23900                 :Logging Cable Length
RUN  .          1                        :RUN NUMBER
#-----------------------------------------------------------------------------
~CURVE INFORMATION
#MNEM.UNIT   API CODE                                  DESCRIPTION
#---- -----  --------                                  -----------------------
DEPT .F                                                :DEPTH (BOREHOLE) {F10.1}
BS   .IN                                               :Bit Size {F13.4}
CS   .F/HR                                             :Cable Speed {F13.4}
TENS .LBF                                              :Cable Tension {F13.4}
DTCO .US/F                                             :Delta-T Compressional {F13.4}
DTSM .US/F                                             :Delta-T Shear {F13.4}
GR   .GAPI                                             :Calibrated Gamma-Ray SC {F13.4}
ECGR .GAPI                                             :Gamma-Ray {F13.4}
NPHI .CFCF                                             :Thermal Neutron Porosity (Ratio Method, Sandstone matrix) {F13.4}
NPL  .CFCF                                             :Neutron Porosity Limestone {F13.4}
TNPH .CFCF                                             :Thermal Neutron Porosity (Sandstone matrix with EC corrections) {F13.4}
GDEV .DEG                                              :HGNS Deviation {F13.4}
AHO10.OHMM                                             :Array Induction One Foot Resistivity A10 {F13.4}
AHO20.OHMM                                             :Array Induction One Foot Resistivity A20 {F13.4}
AHF30.OHMM                                             :Array Induction Four Foot Resistivity A30 {F13.4}
AHF60.OHMM                                             :Array Induction Four Foot Resistivity A60 {F13.4}
AHF90.OHMM                                             :Array Induction Four Foot Resistivity A90 {F13.4}
AHTCA.DEGF                                             :Array Induction Array Temperature Calibrated {F13.4}
RXOI .OHMM                                             :MCFL Very High Resolution Invaded Zone Resistivity {F13.4}
HCAL .IN                                               :HRCC Cal. caliper SC {F13.4}
HDRA .G/C3                                             :HRDD Density Correction {F13.4}
PEFZ .                                                 :HRDD Standard Resolution Formation Photoelectric Factor {F13.4}
RHOZ .G/C3                                             :HRDD Standard Resolution Formation Density {F13.4}
HMIN .OHMM                                             :MCFL Micro Inverse Resistivity {F13.4}
HMNO .OHMM                                             :MCFL Micro Normal Resistivity {F13.4}
RXOZ .OHMM                                             :MCFL Standard Resolution Invaded Zone Resistivity {F13.4}
HGR  .GAPI                                             :Hires Calibrated Gamma-Ray SC {F13.4}
#-----------------------------------------------------------------------------
# 
#     DEPT        BS           CS           TENS         DTCO         DTSM         GR           ECGR         NPHI         NPL          TNPH         GDEV        AHO10        AHO20        AHF30        AHF60        AHF90        AHTCA         RXOI         HCAL         HDRA         PEFZ         RHOZ         HMIN         HMNO         RXOZ         HGR
#
~A  
# ...
   12916.0      12.2500    1753.7355    4852.0000     100.8743     218.5943      57.5560      78.6503       0.2860       0.2441       0.2949       4.5284       1.2293       1.2728       1.2674       1.2635       1.1901     133.6844    1441.4531      11.8089       0.0030       0.9454       2.4034      36.8180      46.6678       0.4167      55.1329
   12916.5      12.2500    1755.0997    4868.0000      97.2108     216.6364      59.5317      81.4908       0.2728       0.2310       0.2951       4.5453       1.2688       1.3253       1.2655       1.2621       1.1877     133.7153       0.2700      11.8535       0.0109       0.9137       2.4140       1.2168       0.5904       0.4169      62.8819
   12917.0      12.2500    1752.4856    4803.0000      96.2020     208.0674      57.1909      78.4888       0.2814       0.2395       0.2928       4.5483       1.2574       1.3227       1.2390       1.2380       1.1654     133.7348    2152.1067      11.9203       0.0086       0.9021       2.3600       1.0506       0.6167       0.4172      60.9406
   12917.5      12.2500    1753.9125    4885.0000      98.9843     203.3021      52.5844      72.4448       0.3089       0.2668       0.2982       4.5416       1.3038       1.3293       1.1852       1.1738       1.1064     133.7032    4382.0962      12.0207      -0.0007       0.9000       2.2570     252.1547     260.0471       2.2933      48.1022
   12918.0      12.2500    1755.3020    4876.0000     100.1522     202.9438      46.5576      63.8409       0.3550       0.3092       0.3027       4.5345       1.2608       1.2297       1.1105       1.0935       1.0350     133.6865    5000.0366      11.8980      -0.0186       0.9345       2.1702       0.6541       0.3900       0.2294      49.3495
   12918.5      12.2500    1752.7167    4955.0000     105.5521     212.0887      45.8554      62.8779       0.3534       0.3078       0.3135       4.5587       1.0140       1.1030       1.0341       1.0231       0.9715     133.7146       0.2696      11.8980      -0.0201       1.0401       2.2108       1.1858       0.5333       0.2085      42.5067
   12919.0      12.2500    1754.1765    4924.0000     107.1665     206.4066      48.7091      66.8484       0.3322       0.2900       0.3127       4.5799       0.8252       0.8383       0.9764       0.9622       0.9161     133.6791    3532.5188      11.9203      -0.0118       1.2237       2.2738       1.8903       1.2403       0.2412      45.9987
   12919.5      12.2500    1755.3621    4948.0000     108.9308     207.2213      52.9247      72.3841       0.3265       0.2842       0.3105       4.5813       0.7497       0.7362       0.9499       0.9371       0.8934     133.7127    5000.0366      11.8312       0.0026       1.4740       2.3414       2.3075       1.3910       1.5186      57.9449
   12920.0      12.2500    1756.2322    4913.0000     106.4843     221.7236      56.2515      77.1665       0.3276       0.2853       0.3237       4.5591       0.8770       0.8937       0.9571       0.9549       0.9094     133.7294    3888.2063      11.9092       0.0093       1.7524       2.3507       2.8729       2.1886       2.2928      55.1534
   12920.5      12.2500    1754.7743    4889.0000     108.1743     224.2035      57.2916      78.6045       0.3417       0.2980       0.3395       4.5572       1.1230       1.1146       0.9944       1.0019       0.9514     133.7465    4036.5566      11.9129       0.0090       2.0045       2.3725      70.8170     101.4596    4124.1841      55.4942
   12921.0      12.2500    1756.5281    4854.0000     104.7610     223.4091      60.8045      82.8731       0.3434       0.2995       0.3458       4.5668       1.1242       1.1278       1.0433       1.0383       0.9859     133.7318    4446.7554      11.7420       0.0137       2.1218       2.3979     131.4257     125.7238     412.3924      60.7473
   12921.5      12.2500    1754.1179    4889.0000     100.5729     222.5581      62.8615      85.6394       0.3413       0.2977       0.3272       4.5856       1.1114       1.1473       1.0804       1.0739       1.0197     133.6841    4158.5352      11.7308       0.0171       2.0757       2.4171     112.6515     111.6314     411.6846      65.6923
   12922.0      12.2500    1755.5367    4820.0000     100.0477     223.8063      62.0410      84.5583       0.3125       0.2703       0.3170       4.5943       1.1869       1.2074       1.1074       1.0945       1.0411     133.6848    4224.8325      11.7420       0.0188       1.9238       2.4360      54.0964      77.6741       2.2868      62.1457
   12922.5      12.2500    1757.3995    4962.0000      98.9017     220.7608      56.7716      77.6006       0.2820       0.2401       0.2977       4.6036       1.2997       1.3066       1.1197       1.1002       1.0482     133.6848    2638.4751      11.8163       0.0089       1.7802       2.4277       1.6935       1.1788       2.2935      58.2467
   12923.0      12.2500    1755.3633    4916.0000     100.0000     216.3914      55.4829      75.9484       0.2720       0.2301       0.2810       4.6045       1.3002       1.3077       1.1167       1.0699       1.0233     133.7334    3927.6587      11.8535       0.0012       1.6962       2.4162       3.0738       2.2536       2.2935      49.8839
   12923.5      12.2500    1756.9600    4929.0000      99.2601     207.2620      56.0693      76.6629       0.2894       0.2474       0.2821       4.5881       1.2738       1.2279       1.1038       1.0571       1.0228     133.6851    3671.5432      11.8237       0.0005       1.6753       2.4201      40.6350      58.5966    3512.6711      58.0119
   12924.0      12.2500    1754.6116    4923.0000     100.6681     217.5990      58.5284      80.0482       0.3083       0.2662       0.2930       4.5717       1.3535       1.2860       1.0937       1.0416       1.0125     133.6684    2972.8328      11.8312      -0.0001       1.6884       2.4176      49.9020      71.4485    3628.0764      60.0458
   12924.5      12.2500    1751.9276    4857.0000     100.9597     216.9258      59.4065      81.0616       0.3039       0.2618       0.2996       4.5740       1.5027       1.3765       1.0839       1.0547       1.0337     133.7002    3542.4067      11.7717       0.0007       1.6933       2.4133      54.0705      77.3826     110.7711      57.2612
   12925.0      12.2500    1753.0336    4909.0000     101.9385     218.4158      58.7042      80.2192       0.3151       0.2729       0.2902       4.5747       1.6958       1.5198       1.0569       1.0329       1.0188     133.7120      13.0939      11.8089       0.0031       1.6709       2.4083      31.2781      32.6590     110.9348      61.0532
   12925.5      12.2500    1754.5387    4914.0000     101.5471     218.5083      57.6177      78.8027       0.3102       0.2681       0.3075       4.5804       1.7460       1.4735       0.9917       0.9642       0.9575     133.6439    4186.7808      11.8312       0.0055       1.6315       2.4048      57.7864      79.4948     101.7463      57.9301
   12926.0      12.2500    1751.8444    4855.0000     103.5585     212.4613      57.4532      78.5776       0.3250       0.2827       0.3099       4.5760       1.8297       1.3624       0.9029       0.8702       0.8682     133.7264     333.1700      11.8312       0.0080       1.6064       2.4033     164.9164     170.5809     933.0040      54.2668
   12926.5      12.2500    1753.1796    4874.0000     102.6357     216.7143      55.3464      75.8923       0.3142       0.2720       0.3280       4.5672       1.7903       1.2387       0.8039       0.7650       0.7651     133.6315    4078.4675      11.8980       0.0067       1.6043       2.3787      68.9801      98.5762     945.9086      60.5450
   12927.0      12.2500    1750.2910    4934.0000     100.7996     225.1292      51.3951      70.4741       0.3200       0.2778       0.3060       4.5749       1.2017       1.0051       0.7090       0.6656       0.6659     133.6811    4248.2378      11.8980       0.0016       1.6065       2.3241      56.1462      80.7077    3321.2197      51.6178
