~VERSION INFORMATION
VERS.           2.0   :CWLS Log ASCII Standard - VERSION 2.0
WRAP.           NO    :One Line per depth step
PROD.  Schlumberger   :LAS Producer
PROG.  DLIS to ASCII 2.1                               :LAS Program name and version
CREA.                                                  :LAS Creation date {YYYY/MM/DD hh:mm}
SOURCE.     ait_DSI.dlis                               :DLIS File Name
FILE-ID.     HAIT  .018                                :File Identification Number
#--------------------------------------------------
~WELL INFORMATION
#MNEM.UNIT      DATA             DESCRIPTION
#---- ------ --------------   -----------------------------
STRT .F      7672.0          :START DEPTH     
STOP .F      13310.0         :STOP DEPTH     
STEP .F       0.5            :STEP     
NULL .          -999.25      :NULL VALUE
COMP .                                                 :COMPANY
CNTY .                                                 :COUNTY
STAT .                                                 :STATE
CTRY .                                                 :COUNTRY
UWI  .                                                 :UNIQUE WELL ID
DATE .        24-FEB-2000                              :LOG DATE {DD-MMM-YYYY}
SRVC .        Schlumberger                             :SERVICE COMPANY
LATI .DEG                                              :LATITUDE
LONG .DEG                                              :LONGITUDE
GDAT .                                                 :GeoDetic Datum
#-----------------------------------------------------------------------------
~PARAMETER INFORMATION
#MNEM.UNIT    VALUE                      DESCRIPTION
#---- -----   --------------------       ------------------------
TD   .F       13320.00000                :Total Depth
TNDTYP.        CMTD-B/A                  :Tension Device
TREF .LBF     1000.00000                 :Reference Tension of the Cable
DIFF .F          1.00000                 :Maximum Permitted Depth Difference
GGRD .DF/F       0.01000                 :Geothermal Gradient
GDEV .DEG        0.00000                 :Average Angular Deviation of Borehole from Normal
GTSE .        TEMP                       :Generalized Temperature Selection
SHT  .DEGF      67.99998                 :Surface Hole Temperature
BHS  .        OPEN                       :Borehole Status
MATR .        SAND                       :Rock Matrix for Neutron Porosity Corrections
GCSE .        HCAL                       :Generalized Caliper Selection
BHT  .DEGF     120.00000                 :Bottom Hole Temperature (used in calculations)
ETEM .DEGF      76.99998                 :HILT External Temperature
DHC  .        BS                         :Density Hole Correction
MDEN .G/C3       2.65000                 :Matrix Density
FD   .G/C3       1.00000                 :Fluid Density
SOCO .        YES                        :Standoff Correction Option
PTCO .        NO                         :Pressure/Temperature Correction Option
FSCO .        NO                         :Formation Salinity Correction Option
CCCO .        NO                         :Casing & Cement Thickness Correction Option
HSCO .        YES                        :Hole Size Correction Option
MWCO .        NO                         :Mud Weight Correction Option
MCCO .        NO                         :Mud Cake Correction Option
BSCO .        NO                         :Borehole Salinity Correction Option
SOCN .IN         0.12500                 :Standoff Distance
MCOR .        BARI                       :Mud Correction
BHFL .        WATER                      :Borehole Fluid Type
TIVD .F       11128.16992                :TVD of Tie-in Point
SPVD .F          0.00000                 :TVD of Starting Point
CD   .F          0.00000                 :Casing Shoe Depth
NLS  .                                   :Nominal Logging Speed
AMD  .DEG       96.63000                 :Azimuth of Maximum Deviation
STEM .DEGF      70.00000                 :Surface Temperature
TWS  .DEGF     100.00000                 :Temperature of Connate Water Sample
RW   .OHMM       1.00000                 :Resistivity of Connate Water
BPT  .                                   :Bubble Point Temperature
BSAL .PPM     62000.00000                :Borehole Salinity
MRT  .DEGF     120.00000                 :Maximum Recorded Temperature
RMFB .                                   :Resistivity of Mud Filtrate - BHT
RMB  .                                   :Resistivity of Mud - BHT
MCST .                                   :Mud Cake Sample Temperature
RMCS .                                   :Resistivity of Mud Cake Sample
MFST .                                   :Mud Filtrate Sample Temperature
RMFS .                                   :Resistivity of Mud Filtrate Sample
MST  .                                   :Mud Sample Temperature
RMS  .                                   :Resistivity of Mud Sample
DFPH .           8.40000                 :Drilling Fluid PH
DFL  .C3         0.00000                 :Drilling Fluid Loss
DFV  .S         71.00000                 :Drilling Fluid Viscosity
DFD  .LB/G      12.40000                 :Drilling Fluid Density
CWEI .LB/F      68.00000                 :Casing Weight
CSIZ .IN        13.37500                 :Current Casing Size
BS   .IN        12.25000                 :Bit Size
MHD  .DEG        6.79000                 :Maximum Hole Deviation
FLEV .F         10.00000                 :Fluid Level
CBLO .F       7966.00000                 :Casing Bottom of Logger
CBDR .F       7961.00000                 :Casing Bottom of Driller
CADT .                                   :Casing Depth To
CDF  .                                   :Casing Depth From
BSDT .                                   :Bit Size Depth To
BSDF .                                   :Bit Size Depth From
BLI  .F       13296.00000                :Bottom Log Interval
TDL  .F       13302.00000                :Total Depth - Logger
TDD  .F       13320.00000                :Total Depth - Driller
APD  .F         82.00000                 :Above Permanent Datum
EPD  .F          0.00000                 :Elevation of Permanent Datum
ELZ  .F         82.00000                 :Elevation of Log Zero
EDF  .F         82.00000                 :Elevation of Derrick Floor
EGL  .F       -3644.00000                :Elevation of Ground Level
EKB  .F         82.00000                 :Elevation of Kelly Bushing
LCC  .               440                 :Logging Company Code
MCSS .                                   :Mud Cake Sample Source
MFSS .                                   :Mud Filtrate Sample Source
MSS  .                                   :Mud Sample Source
TCS  .        18 00                      :Time Circulation Stopped
DCS  .                                   :Date Circulation Stopped
DFT  .        Oil Based Mud              :Drilling Fluid Type
CASG .                                   :Casing Grade
ENGI .                                   :Engineer's Name
TLAB .        11 00                      :Time Logger At Bottom
DLAB .                                   :Date Logger At Bottom
DATE .                                   :Date as Month-Day-Year
DMF  .        RKB                        :Drilling Measured From
LMF  .        RKB                        :Log Measured From
PDAT .        MSL                        :Permanent Datum
LCL  .F            23900                 :Logging Cable Length
RUN  .          1                        :RUN NUMBER
#-----------------------------------------------------------------------------
~CURVE INFORMATION
#MNEM.UNIT   API CODE                                  DESCRIPTION
#---- -----  --------                                  -----------------------
DEPT .F                                                :DEPTH (BOREHOLE) {F10.1}
BS   .IN                                               :Bit Size {F13.4}
CS   .F/HR                                             :Cable Speed {F13.4}
TENS .LBF                                              :Cable Tension {F13.4}
DTCO .US/F                                             :Delta-T Compressional {F13.4}
DTSM .US/F                                             :Delta-T Shear {F13.4}
GR   .GAPI                                             :Calibrated Gamma-Ray SC {F13.4}
ECGR .GAPI                                             :Gamma-Ray {F13.4}
NPHI .CFCF                                             :Thermal Neutron Porosity (Ratio Method, Sandstone matrix) {F13.4}
NPL  .CFCF                                             :Neutron Porosity Limestone {F13.4}
TNPH .CFCF                                             :Thermal Neutron Porosity (Sandstone matrix with EC corrections) {F13.4}
GDEV .DEG                                              :HGNS Deviation {F13.4}
AHO10.OHMM                                             :Array Induction One Foot Resistivity A10 {F13.4}
AHO20.OHMM                                             :Array Induction One Foot Resistivity A20 {F13.4}
AHF30.OHMM                                             :Array Induction Four Foot Resistivity A30 {F13.4}
AHF60.OHMM                                             :Array Induction Four Foot Resistivity A60 {F13.4}
AHF90.OHMM                                             :Array Induction Four Foot Resistivity A90 {F13.4}
AHTCA.DEGF                                             :Array Induction Array Temperature Calibrated {F13.4}
RXOI .OHMM                                             :MCFL Very High Resolution Invaded Zone Resistivity {F13.4}
HCAL .IN                                               :HRCC Cal. caliper SC {F13.4}
HDRA .G/C3                                             :HRDD Density Correction {F13.4}
PEFZ .                                                 :HRDD Standard Resolution Formation Photoelectric Factor {F13.4}
RHOZ .G/C3                                             :HRDD Standard Resolution Formation Density {F13.4}
HMIN .OHMM                                             :MCFL Micro Inverse Resistivity {F13.4}
HMNO .OHMM                                             :MCFL Micro Normal Resistivity {F13.4}
RXOZ .OHMM                                             :MCFL Standard Resolution Invaded Zone Resistivity {F13.4}
HGR  .GAPI                                             :Hires Calibrated Gamma-Ray SC {F13.4}
#-----------------------------------------------------------------------------
# 
#     DEPT        BS           CS           TENS         DTCO         DTSM         GR           ECGR         NPHI         NPL          TNPH         GDEV        AHO10        AHO20        AHF30        AHF60        AHF90        AHTCA         RXOI         HCAL         HDRA         PEFZ         RHOZ         HMIN         HMNO         RXOZ         HGR
#
~A  
# ...
    8051.5      12.2500    1775.8815    3590.0000     132.7440     317.4362      84.3167     116.6055       0.5517       0.4737       0.5137       0.0000       1.6912       1.7465       1.8242       1.8331       1.6975     109.7982    2733.1079      12.1210      -0.0107       2.1797       2.1998       1.2329       0.7095       0.3530      82.9052
    8052.0      12.2500    1773.4604    3593.0000     134.0536     316.9061      84.5510     117.0280       0.5371       0.4615       0.5171       0.0000       1.7274       1.7357       1.8346       1.8411       1.6979     109.8137       0.2700      12.1433      -0.0130       2.1735       2.1956       0.2214       0.2317       0.2700      82.6146
    8052.5      12.2500    1776.1853    3512.0000     134.4545     313.0356      86.3587     119.4295       0.5643       0.4842       0.5026       0.0000       1.7944       1.8236       1.8432       1.8464       1.6962     109.8613    4373.3623      12.1210      -0.0135       2.2004       2.1963       0.8080       0.4766       0.1836      88.1706
    8053.0      12.2500    1772.2679    3457.0000     135.0311     313.2620      88.5779     122.6533       0.5623       0.4825       0.5313       0.0000       1.8428       1.9366       1.8453       1.8425       1.6871     109.8296       0.1350      12.1544      -0.0129       2.2764       2.1939       0.1586       0.1763       0.1912      87.8866
    8053.5      12.2500    1772.3557    3485.0000     135.3812     305.4188      87.0001     120.4855       0.5432       0.4666       0.5364       0.0000       1.7199       1.7874       1.8402       1.8286       1.6700     109.8126       0.2700      12.1581      -0.0132       2.3951       2.1873       0.3104       0.2980       0.2186      88.5044
    8054.0      12.2500    1776.3799    3472.0000     135.5999     301.1668      82.4958     114.2474       0.5332       0.4582       0.5049       0.0000       1.6057       1.6681       1.8350       1.8157       1.6535     109.8760       0.2700      12.1581      -0.0128       2.5582       2.1789       1.3233       0.7920       0.5099      83.4384
    8054.5      12.2500    1772.4902    3496.0000     135.4237     305.6404      82.1445     113.6652       0.5171       0.4448       0.4983       0.1660       1.6902       1.7791       1.8235       1.7877       1.6276     109.8436    1345.7037      12.1358      -0.0119       2.7347       2.1718       2.8803       2.1040       1.1470      74.5991
    8055.0      12.2500    1772.6097    3510.0000     135.2775     322.5628      81.9658     113.4498       0.5385       0.4626       0.4820       0.1013       1.7570       1.8500       1.8274       1.7817       1.6187     109.8300    5000.0366      12.1433      -0.0109       2.8892       2.1716       2.1966       1.3555       0.5737      88.1746
    8055.5      12.2500    1772.2472    3560.0000     135.5352     335.7859      85.3186     118.0904       0.5560       0.4772       0.5030       0.0000       1.6731       1.7629       1.8383       1.7839       1.6177     109.9140       0.2700      12.1433      -0.0099       2.9689       2.1742       0.8817       0.5343       0.3531      82.9052
    8056.0      12.2500    1768.2825    3575.0000     134.9196     333.0854      85.8093     118.7697       0.5589       0.4797       0.5236       0.0000       1.6322       1.7207       1.8612       1.7985       1.6275     109.8819    4674.8579      12.1433      -0.0101       2.9994       2.1809       0.5275       0.3989       0.3825      84.5625
    8056.5      12.2500    1767.8009    3531.0000     134.7314     332.9799      89.4394     123.7593       0.5889       0.5048       0.5236       0.0000       1.6627       1.7867       1.9178       1.8444       1.6619     109.9121    5000.0366      12.1358      -0.0105       2.9722       2.1817       1.0760       0.6584       0.3825      90.0453
    8057.0      12.2500    1767.2505    3505.0000     135.6514     334.2798      89.4293     123.7802       0.5687       0.4879       0.5548       0.0000       1.7082       1.8304       2.0198       1.9446       1.7413     109.9116       0.1350      12.1433      -0.0107       2.9402       2.1791       0.3385       0.3262       0.3531      93.7953
    8057.5      12.2500    1766.1223    3521.0000     135.5203     331.3517      88.7701     122.8678       0.5808       0.4980       0.5446       0.2644       1.8108       1.9325       2.1646       2.0502       1.8244     109.8625    5000.0366      12.1433      -0.0092       2.9098       2.1697       1.3208       0.6622       0.3531      84.8436
    8058.0      12.2500    1765.3322    3421.0000     135.3455     334.0577      84.7888     117.4559       0.5612       0.4816       0.5929       0.5083       2.0857       2.2805       2.3359       2.1546       1.9049     109.8472    4804.0830      12.1656      -0.0065       2.8755       2.1655       1.6743       0.9188       0.4590      87.9660
    8058.5      12.2500    1767.8691    3461.0000     135.6067     345.0305      87.0701     120.8186       0.5431       0.4665       0.5677       0.2321       2.5526       2.9403       2.5397       2.2998       2.0148     109.9116    4140.9834      12.2102      -0.0062       2.8431       2.1633       1.7200       0.8242       0.5737      81.8513
    8059.0      12.2500    1767.8257    3531.0000     135.8020     333.2273      89.3183     123.9381       0.5400       0.4639       0.5268       0.0000       2.8266       3.2505       2.6993       2.3668       2.0658     109.8640    2929.4114      12.2102      -0.0074       2.7816       2.1685       1.7607       0.8086       0.4590      91.6876
    8059.5      12.2500    1771.2028    3561.0000     135.0961     338.2833      91.5432     127.1316       0.5513       0.4734       0.5046       0.0000       2.6409       3.0754       2.7845       2.3642       2.0609     109.8786    3980.2227      12.2324      -0.0105       2.7091       2.1674       1.6014       1.1490       0.9178      94.1064
    8060.0      12.2500    1770.6392    3545.0000     134.3770     337.6927      90.2551     125.3428       0.5808       0.4980       0.5089       0.0000       2.4961       2.8773       2.7958       2.3690       2.0551     109.9108    4648.9468      12.2324      -0.0095       2.6445       2.1662     856.4612     798.9677       2.2939      88.5259
    8060.5      12.2500    1766.4448    3548.0000     133.5689     337.0495      88.8779     123.3615       0.5865       0.5027       0.5567       0.0000       2.4107       2.6114       2.7882       2.4161       2.0874     109.9282    5000.0366      12.2176      -0.0085       2.6340       2.1656       0.9948       0.6850       0.4172      87.8233
    8061.0      12.2500    1765.7007    3499.0000     133.6759     337.7353      86.3017     119.7190       0.5728       0.4913       0.5702       0.0000       2.2672       2.5854       2.7997       2.4471       2.1038     109.9137       0.1350      12.2027      -0.0069       2.6810       2.1747       0.2127       0.2149       0.2086      90.2824
    8061.5      12.2500    1768.7742    3509.0000     133.7957     346.3381      85.1307     118.0286       0.5439       0.4672       0.5322       0.0981       2.2247       2.5369       2.8780       2.5353       2.1625     109.9133    5000.0366      12.1879      -0.0086       2.7127       2.1785       0.2480       0.2460       0.1912      80.7974
    8062.0      12.2500    1772.2867    3521.0000     133.3394     344.6807      81.9154     113.5232       0.5343       0.4591       0.5044       0.1074       2.4346       2.6739       3.0082       2.7620       2.3146     109.9128       0.2700      12.1767      -0.0102       2.7433       2.1731       0.7008       0.4563       0.1836      84.3104
    8062.5      12.2500    1772.3772    3560.0000     133.2174     335.3791      82.4386     114.1043       0.5349       0.4596       0.4979       0.0000       2.6578       2.9292       3.1725       2.8873       2.3965     109.9292       0.0900      12.1433      -0.0097       2.7559       2.1642       0.8404       0.4509       0.2550      80.6552
