~VERSION INFORMATION
VERS.           2.0   :CWLS Log ASCII Standard - VERSION 2.0
WRAP.           NO    :One Line per depth step
PROD.  Schlumberger   :LAS Producer
PROG.  DLIS to ASCII 2.1                               :LAS Program name and version
CREA.                                                  :LAS Creation date {YYYY/MM/DD hh:mm}
SOURCE.     ait_DSI.dlis                               :DLIS File Name
FILE-ID.     HAIT  .018                                :File Identification Number
#--------------------------------------------------
~WELL INFORMATION
#MNEM.UNIT      DATA             DESCRIPTION
#---- ------ --------------   -----------------------------
STRT .F      7672.0          :START DEPTH     
STOP .F      13310.0         :STOP DEPTH     
STEP .F       0.5            :STEP     
NULL .          -999.25      :NULL VALUE
COMP .                                                 :COMPANY
CNTY .                                                 :COUNTY
STAT .                                                 :STATE
CTRY .                                                 :COUNTRY
UWI  .                                                 :UNIQUE WELL ID
DATE .        24-FEB-2000                              :LOG DATE {DD-MMM-YYYY}
SRVC .        Schlumberger                             :SERVICE COMPANY
LATI .DEG                                              :LATITUDE
LONG .DEG                                              :LONGITUDE
GDAT .                                                 :GeoDetic Datum
#-----------------------------------------------------------------------------
~PARAMETER INFORMATION
#MNEM.UNIT    VALUE                      DESCRIPTION
#---- -----   --------------------       ------------------------
TD   .F       13320.00000                :Total Depth
TNDTYP.        CMTD-B/A                  :Tension Device
TREF .LBF     1000.00000                 :Reference Tension of the Cable
DIFF .F          1.00000                 :Maximum Permitted Depth Difference
GGRD .DF/F       0.01000                 :Geothermal Gradient
GDEV .DEG        0.00000                 :Average Angular Deviation of Borehole from Normal
GTSE .        TEMP                       :Generalized Temperature Selection
SHT  .DEGF      67.99998                 :Surface Hole Temperature
BHS  .        OPEN                       :Borehole Status
MATR .        SAND                       :Rock Matrix for Neutron Porosity Corrections
GCSE .        HCAL                       :Generalized Caliper Selection
BHT  .DEGF     120.00000                 :Bottom Hole Temperature (used in calculations)
ETEM .DEGF      76.99998                 :HILT External Temperature
DHC  .        BS                         :Density Hole Correction
MDEN .G/C3       2.65000                 :Matrix Density
FD   .G/C3       1.00000                 :Fluid Density
SOCO .        YES                        :Standoff Correction Option
PTCO .        NO                         :Pressure/Temperature Correction Option
FSCO .        NO                         :Formation Salinity Correction Option
CCCO .        NO                         :Casing & Cement Thickness Correction Option
HSCO .        YES                        :Hole Size Correction Option
MWCO .        NO                         :Mud Weight Correction Option
MCCO .        NO                         :Mud Cake Correction Option
BSCO .        NO                         :Borehole Salinity Correction Option
SOCN .IN         0.12500                 :Standoff Distance
MCOR .        BARI                       :Mud Correction
BHFL .        WATER                      :Borehole Fluid Type
TIVD .F       11128.16992                :TVD of Tie-in Point
SPVD .F          0.00000                 :TVD of Starting Point
CD   .F          0.00000                 :Casing Shoe Depth
NLS  .                                   :Nominal Logging Speed
AMD  .DEG       96.63000                 :Azimuth of Maximum Deviation
STEM .DEGF      70.00000                 :Surface Temperature
TWS  .DEGF     100.00000                 :Temperature of Connate Water Sample
RW   .OHMM       1.00000                 :Resistivity of Connate Water
BPT  .                                   :Bubble Point Temperature
BSAL .PPM     62000.00000                :Borehole Salinity
MRT  .DEGF     120.00000                 :Maximum Recorded Temperature
RMFB .                                   :Resistivity of Mud Filtrate - BHT
RMB  .                                   :Resistivity of Mud - BHT
MCST .                                   :Mud Cake Sample Temperature
RMCS .                                   :Resistivity of Mud Cake Sample
MFST .                                   :Mud Filtrate Sample Temperature
RMFS .                                   :Resistivity of Mud Filtrate Sample
MST  .                                   :Mud Sample Temperature
RMS  .                                   :Resistivity of Mud Sample
DFPH .           8.40000                 :Drilling Fluid PH
DFL  .C3         0.00000                 :Drilling Fluid Loss
DFV  .S         71.00000                 :Drilling Fluid Viscosity
DFD  .LB/G      12.40000                 :Drilling Fluid Density
CWEI .LB/F      68.00000                 :Casing Weight
CSIZ .IN        13.37500                 :Current Casing Size
BS   .IN        12.25000                 :Bit Size
MHD  .DEG        6.79000                 :Maximum Hole Deviation
FLEV .F         10.00000                 :Fluid Level
CBLO .F       7966.00000                 :Casing Bottom of Logger
CBDR .F       7961.00000                 :Casing Bottom of Driller
CADT .                                   :Casing Depth To
CDF  .                                   :Casing Depth From
BSDT .                                   :Bit Size Depth To
BSDF .                                   :Bit Size Depth From
BLI  .F       13296.00000                :Bottom Log Interval
TDL  .F       13302.00000                :Total Depth - Logger
TDD  .F       13320.00000                :Total Depth - Driller
APD  .F         82.00000                 :Above Permanent Datum
EPD  .F          0.00000                 :Elevation of Permanent Datum
ELZ  .F         82.00000                 :Elevation of Log Zero
EDF  .F         82.00000                 :Elevation of Derrick Floor
EGL  .F       -3644.00000                :Elevation of Ground Level
EKB  .F         82.00000                 :Elevation of Kelly Bushing
LCC  .               440                 :Logging Company Code
MCSS .                                   :Mud Cake Sample Source
MFSS .                                   :Mud Filtrate Sample Source
MSS  .                                   :Mud Sample Source
TCS  .        18 00                      :Time Circulation Stopped
DCS  .                                   :Date Circulation Stopped
DFT  .        Oil Based Mud              :Drilling Fluid Type
CASG .                                   :Casing Grade
ENGI .                                   :Engineer's Name
TLAB .        11 00                      :Time Logger At Bottom
DLAB .                                   :Date Logger At Bottom
DATE .                                   :Date as Month-Day-Year
DMF  .        RKB                        :Drilling Measured From
LMF  .        RKB                        :Log Measured From
PDAT .        MSL                        :Permanent Datum
LCL  .F            23900                 :Logging Cable Length
RUN  .          1                        :RUN NUMBER
#-----------------------------------------------------------------------------
~CURVE INFORMATION
#MNEM.UNIT   API CODE                                  DESCRIPTION
#---- -----  --------                                  -----------------------
DEPT .F                                                :DEPTH (BOREHOLE) {F10.1}
BS   .IN                                               :Bit Size {F13.4}
CS   .F/HR                                             :Cable Speed {F13.4}
TENS .LBF                                              :Cable Tension {F13.4}
DTCO .US/F                                             :Delta-T Compressional {F13.4}
DTSM .US/F                                             :Delta-T Shear {F13.4}
GR   .GAPI                                             :Calibrated Gamma-Ray SC {F13.4}
ECGR .GAPI                                             :Gamma-Ray {F13.4}
NPHI .CFCF                                             :Thermal Neutron Porosity (Ratio Method, Sandstone matrix) {F13.4}
NPL  .CFCF                                             :Neutron Porosity Limestone {F13.4}
TNPH .CFCF                                             :Thermal Neutron Porosity (Sandstone matrix with EC corrections) {F13.4}
GDEV .DEG                                              :HGNS Deviation {F13.4}
AHO10.OHMM                                             :Array Induction One Foot Resistivity A10 {F13.4}
AHO20.OHMM                                             :Array Induction One Foot Resistivity A20 {F13.4}
AHF30.OHMM                                             :Array Induction Four Foot Resistivity A30 {F13.4}
AHF60.OHMM                                             :Array Induction Four Foot Resistivity A60 {F13.4}
AHF90.OHMM                                             :Array Induction Four Foot Resistivity A90 {F13.4}
AHTCA.DEGF                                             :Array Induction Array Temperature Calibrated {F13.4}
RXOI .OHMM                                             :MCFL Very High Resolution Invaded Zone Resistivity {F13.4}
HCAL .IN                                               :HRCC Cal. caliper SC {F13.4}
HDRA .G/C3                                             :HRDD Density Correction {F13.4}
PEFZ .                                                 :HRDD Standard Resolution Formation Photoelectric Factor {F13.4}
RHOZ .G/C3                                             :HRDD Standard Resolution Formation Density {F13.4}
HMIN .OHMM                                             :MCFL Micro Inverse Resistivity {F13.4}
HMNO .OHMM                                             :MCFL Micro Normal Resistivity {F13.4}
RXOZ .OHMM                                             :MCFL Standard Resolution Invaded Zone Resistivity {F13.4}
HGR  .GAPI                                             :Hires Calibrated Gamma-Ray SC {F13.4}
#-----------------------------------------------------------------------------
# 
#     DEPT        BS           CS           TENS         DTCO         DTSM         GR           ECGR         NPHI         NPL          TNPH         GDEV        AHO10        AHO20        AHF30        AHF60        AHF90        AHTCA         RXOI         HCAL         HDRA         PEFZ         RHOZ         HMIN         HMNO         RXOZ         HGR
#
~A  
# ...
    9926.0      12.2500    1705.0657    3998.0000     130.7633     313.2086      87.5541     121.0486       0.5253       0.4516       0.4779       1.7189       1.3681       1.1938       0.9015       0.8535       0.8506     122.0791    3260.2576      12.1135      -0.0091       1.9717       2.2716       1.8354       0.9254       0.3278      84.0617
    9926.5      12.2500    1707.4243    3993.0000     131.2736     312.7573      87.7015     121.1842       0.5210       0.4480       0.4979       1.7861       1.0630       1.0975       0.8013       0.7532       0.7541     122.1120       0.2700      12.0987      -0.0092       2.0818       2.2725       1.5212       0.7215       0.3530      87.1209
    9927.0      12.2500    1709.8933    3954.0000     131.7822     313.2298      89.8684     124.1784       0.5005       0.4308       0.4886       1.9667       0.7217       0.7490       0.7132       0.6834       0.6864     122.1107    4951.7856      12.0987      -0.0098       2.2140       2.2663       1.8627       0.8996       0.3060      91.6877
    9927.5      12.2500    1710.6573    3996.0000     131.6444     313.2335      90.4539     125.0402       0.4781       0.4121       0.4797       2.0134       0.5415       0.5105       0.6557       0.6219       0.6259     122.0945    4554.2222      12.1098      -0.0103       2.3203       2.2593       2.0551       0.9766       0.5736      91.0743
    9928.0      12.2500    1712.2203    4003.0000     131.7847     310.5972      86.3432     119.3073       0.4639       0.4002       0.4652       1.9233       0.5150       0.4848       0.6306       0.6053       0.6111     122.1415       0.2700      12.0987      -0.0084       2.3882       2.2654       2.1023       1.0290       0.4589      88.8774
    9928.5      12.2500    1711.6918    3993.0000     131.1635     306.8540      84.8842     117.3242       0.4565       0.3940       0.4351       1.8713       0.6486       0.6063       0.6364       0.6194       0.6262     122.1092    1562.0242      12.1061      -0.0058       2.4025       2.2724       2.1145       1.0052       0.6556      78.9097
    9929.0      12.2500    1709.6776    3974.0000     131.6194     302.4911      87.6372     121.1976       0.4652       0.4013       0.4287       1.9041       0.8810       0.7881       0.6631       0.6537       0.6630     122.1247    2253.7671      12.1210      -0.0035       2.3790       2.2732       1.7759       1.0593       0.9177      86.4183
    9929.5      12.2500    1706.4265    3986.0000     130.9134     302.5719      87.4153     120.8907       0.4547       0.3926       0.4329       1.9384       1.0453       0.8875       0.6874       0.6894       0.7018     122.1556    3548.7976      12.1210      -0.0028       2.3643       2.2672      34.6525      50.2071       4.5838      97.6449
    9930.0      12.2500    1704.8364    3947.0000     130.3412     302.1786      90.2999     124.8097       0.4795       0.4133       0.4278       1.9360       1.0165       0.8554       0.6987       0.7053       0.7167     122.1079    3206.0439      12.1061      -0.0038       2.3990       2.2618       2.5049       1.9727       4.5842      78.6898
    9930.5      12.2500    1707.1624    4017.0000     130.2678     301.5546      86.3758     119.5035       0.4761       0.4104       0.4385       1.9346       0.8221       0.7895       0.6836       0.6863       0.6958     122.1083    4464.5596      12.1321      -0.0047       2.5068       2.2647       1.6539       1.1664       1.1472      94.9082
    9931.0      12.2500    1706.1447    3983.0000     129.8033     299.8365      90.0283     124.5742       0.5003       0.4306       0.4371       1.8709       0.6929       0.6395       0.6447       0.6492       0.6571     122.1566    5000.0366      12.1358      -0.0061       2.6444       2.2673       1.6329       0.8503       0.5737      85.3644
    9931.5      12.2500    1704.7482    4014.0000     129.5150     305.6944      89.3376     123.6012       0.4844       0.4174       0.4713       1.8946       0.6220       0.5610       0.6139       0.6172       0.6231     122.1240       0.2700      12.1321      -0.0081       2.7899       2.2644       1.8662       0.8593       0.3278      89.2919
    9932.0      12.2500    1703.1522    4078.0000     129.7361     301.1444      93.6703     129.5045       0.4930       0.4246       0.4702       2.0253       0.6771       0.6048       0.5829       0.5876       0.5920     122.1402    5000.0366      12.1135      -0.0095       2.9307       2.2634       1.5876       0.7196       0.2700      93.0143
    9932.5      12.2500    1705.2375    4038.0000     129.4094     302.0833      94.7399     130.8544       0.5003       0.4307       0.4796       2.1038       0.6762       0.5723       0.5579       0.5612       0.5629     122.1415    5000.0366      12.0875      -0.0095       3.0351       2.2704       1.2997       0.6577       0.3825      98.3624
    9933.0      12.2500    1707.3943    4003.0000     128.8940     302.2939      91.1408     125.9365       0.5209       0.4479       0.4760       2.0539       0.6165       0.5315       0.5446       0.5491       0.5490     122.1759    5000.0366      12.0987      -0.0087       3.0986       2.2790      15.3961      24.1370       0.5737      92.6672
    9933.5      12.2500    1706.1763    4062.0000     128.4627     302.6972      87.5219     120.9360       0.5276       0.4536       0.4878       1.9664       0.5326       0.4747       0.5380       0.5457       0.5439     122.1753       0.2700      12.0987      -0.0082       3.1480       2.2823       1.0994       0.7191       0.5737      82.2028
    9934.0      12.2500    1705.0178    4029.0000     128.6121     301.4698      86.6641     119.7169       0.5053       0.4349       0.4963       1.9000       0.5535       0.5034       0.5407       0.5528       0.5492     122.1585    5000.0366      12.0913      -0.0088       3.2096       2.2768       1.7486       0.8026       0.2550      88.1556
    9934.5      12.2500    1708.7197    4026.0000     128.2249     300.1587      88.7061     122.5204       0.4975       0.4283       0.4823       1.8866       0.5525       0.5111       0.5638       0.5836       0.5769     122.1602       0.1350      12.0875      -0.0093       3.2764       2.2736       1.9361       0.8428       0.3278      90.2826
    9935.0      12.2500    1706.0443    4003.0000     127.8357     302.3699      86.3262     119.2838       0.4414       0.3814       0.4647       1.9439       0.5858       0.5004       0.6050       0.6431       0.6342     122.1770    4322.9307      12.0987      -0.0098       3.3501       2.2715       2.4821       1.9647       0.5099      88.3504
    9935.5      12.2500    1708.7688    3993.0000     127.6209     300.1201      85.5065     118.1511       0.4486       0.3875       0.4134       2.0475       0.7016       0.6181       0.6489       0.6803       0.6689     122.1613    4420.1650      12.0987      -0.0094       3.4676       2.2701       1.6448       1.1635       2.2937      80.3708
    9936.0      12.2500    1707.7472    4013.0000     126.9624     301.6484      80.3203     110.9224       0.4050       0.3510       0.4323       2.0508       0.8455       0.7935       0.7011       0.7487       0.7322     122.1624    3240.3171      12.0838      -0.0073       3.5834       2.2716       2.3713       1.9505       1.5295      87.8235
    9936.5      12.2500    1710.4889    3958.0000     126.9784     299.5206      81.9864     113.1594       0.4760       0.4104       0.4029       1.9727       1.0393       0.9407       0.7381       0.7743       0.7561     122.1476    4707.4541      12.0690      -0.0050       3.5630       2.2772       1.2288       0.8501       0.5737      72.5294
    9937.0      12.2500    1705.6750    4006.0000     127.2666     305.5907      83.1963     114.8618       0.4757       0.4101       0.4533       1.9288       0.9318       0.8757       0.7594       0.7962       0.7768     122.1801       0.1350      12.0764      -0.0049       3.4027       2.2817       0.9699       0.5454       0.5737      85.3644
