~VERSION INFORMATION
VERS.           2.0   :CWLS Log ASCII Standard - VERSION 2.0
WRAP.           NO    :One Line per depth step
PROD.  Schlumberger   :LAS Producer
PROG.  DLIS to ASCII 2.1                               :LAS Program name and version
CREA.                                                  :LAS Creation date {YYYY/MM/DD hh:mm}
SOURCE.     ait_DSI.dlis                               :DLIS File Name
FILE-ID.     HAIT  .018                                :File Identification Number
#--------------------------------------------------
~WELL INFORMATION
#MNEM.UNIT      DATA             DESCRIPTION
#---- ------ --------------   -----------------------------
STRT .F      7672.0          :START DEPTH     
STOP .F      13310.0         :STOP DEPTH     
STEP .F       0.5            :STEP     
NULL .          -999.25      :NULL VALUE
COMP .                                                 :COMPANY
CNTY .                                                 :COUNTY
STAT .                                                 :STATE
CTRY .                                                 :COUNTRY
UWI  .                                                 :UNIQUE WELL ID
DATE .        24-FEB-2000                              :LOG DATE {DD-MMM-YYYY}
SRVC .        Schlumberger                             :SERVICE COMPANY
LATI .DEG                                              :LATITUDE
LONG .DEG                                              :LONGITUDE
GDAT .                                                 :GeoDetic Datum
#-----------------------------------------------------------------------------
~PARAMETER INFORMATION
#MNEM.UNIT    VALUE                      DESCRIPTION
#---- -----   --------------------       ------------------------
TD   .F       13320.00000                :Total Depth
TNDTYP.        CMTD-B/A                  :Tension Device
TREF .LBF     1000.00000                 :Reference Tension of the Cable
DIFF .F          1.00000                 :Maximum Permitted Depth Difference
GGRD .DF/F       0.01000                 :Geothermal Gradient
GDEV .DEG        0.00000                 :Average Angular Deviation of Borehole from Normal
GTSE .        TEMP                       :Generalized Temperature Selection
SHT  .DEGF      67.99998                 :Surface Hole Temperature
BHS  .        OPEN                       :Borehole Status
MATR .        SAND                       :Rock Matrix for Neutron Porosity Corrections
GCSE .        HCAL                       :Generalized Caliper Selection
BHT  .DEGF     120.00000                 :Bottom Hole Temperature (used in calculations)
ETEM .DEGF      76.99998                 :HILT External Temperature
DHC  .        BS                         :Density Hole Correction
MDEN .G/C3       2.65000                 :Matrix Density
FD   .G/C3       1.00000                 :Fluid Density
SOCO .        YES                        :Standoff Correction Option
PTCO .        NO                         :Pressure/Temperature Correction Option
FSCO .        NO                         :Formation Salinity Correction Option
CCCO .        NO                         :Casing & Cement Thickness Correction Option
HSCO .        YES                        :Hole Size Correction Option
MWCO .        NO                         :Mud Weight Correction Option
MCCO .        NO                         :Mud Cake Correction Option
BSCO .        NO                         :Borehole Salinity Correction Option
SOCN .IN         0.12500                 :Standoff Distance
MCOR .        BARI                       :Mud Correction
BHFL .        WATER                      :Borehole Fluid Type
TIVD .F       11128.16992                :TVD of Tie-in Point
SPVD .F          0.00000                 :TVD of Starting Point
CD   .F          0.00000                 :Casing Shoe Depth
NLS  .                                   :Nominal Logging Speed
AMD  .DEG       96.63000                 :Azimuth of Maximum Deviation
STEM .DEGF      70.00000                 :Surface Temperature
TWS  .DEGF     100.00000                 :Temperature of Connate Water Sample
RW   .OHMM       1.00000                 :Resistivity of Connate Water
BPT  .                                   :Bubble Point Temperature
BSAL .PPM     62000.00000                :Borehole Salinity
MRT  .DEGF     120.00000                 :Maximum Recorded Temperature
RMFB .                                   :Resistivity of Mud Filtrate - BHT
RMB  .                                   :Resistivity of Mud - BHT
MCST .                                   :Mud Cake Sample Temperature
RMCS .                                   :Resistivity of Mud Cake Sample
MFST .                                   :Mud Filtrate Sample Temperature
RMFS .                                   :Resistivity of Mud Filtrate Sample
MST  .                                   :Mud Sample Temperature
RMS  .                                   :Resistivity of Mud Sample
DFPH .           8.40000                 :Drilling Fluid PH
DFL  .C3         0.00000                 :Drilling Fluid Loss
DFV  .S         71.00000                 :Drilling Fluid Viscosity
DFD  .LB/G      12.40000                 :Drilling Fluid Density
CWEI .LB/F      68.00000                 :Casing Weight
CSIZ .IN        13.37500                 :Current Casing Size
BS   .IN        12.25000                 :Bit Size
MHD  .DEG        6.79000                 :Maximum Hole Deviation
FLEV .F         10.00000                 :Fluid Level
CBLO .F       7966.00000                 :Casing Bottom of Logger
CBDR .F       7961.00000                 :Casing Bottom of Driller
CADT .                                   :Casing Depth To
CDF  .                                   :Casing Depth From
BSDT .                                   :Bit Size Depth To
BSDF .                                   :Bit Size Depth From
BLI  .F       13296.00000                :Bottom Log Interval
TDL  .F       13302.00000                :Total Depth - Logger
TDD  .F       13320.00000                :Total Depth - Driller
APD  .F         82.00000                 :Above Permanent Datum
EPD  .F          0.00000                 :Elevation of Permanent Datum
ELZ  .F         82.00000                 :Elevation of Log Zero
EDF  .F         82.00000                 :Elevation of Derrick Floor
EGL  .F       -3644.00000                :Elevation of Ground Level
EKB  .F         82.00000                 :Elevation of Kelly Bushing
LCC  .               440                 :Logging Company Code
MCSS .                                   :Mud Cake Sample Source
MFSS .                                   :Mud Filtrate Sample Source
MSS  .                                   :Mud Sample Source
TCS  .        18 00                      :Time Circulation Stopped
DCS  .                                   :Date Circulation Stopped
DFT  .        Oil Based Mud              :Drilling Fluid Type
CASG .                                   :Casing Grade
ENGI .                                   :Engineer's Name
TLAB .        11 00                      :Time Logger At Bottom
DLAB .                                   :Date Logger At Bottom
DATE .                                   :Date as Month-Day-Year
DMF  .        RKB                        :Drilling Measured From
LMF  .        RKB                        :Log Measured From
PDAT .        MSL                        :Permanent Datum
LCL  .F            23900                 :Logging Cable Length
RUN  .          1                        :RUN NUMBER
#-----------------------------------------------------------------------------
~CURVE INFORMATION
#MNEM.UNIT   API CODE                                  DESCRIPTION
#---- -----  --------                                  -----------------------
DEPT .F                                                :DEPTH (BOREHOLE) {F10.1}
BS   .IN                                               :Bit Size {F13.4}
CS   .F/HR                                             :Cable Speed {F13.4}
TENS .LBF                                              :Cable Tension {F13.4}
DTCO .US/F                                             :Delta-T Compressional {F13.4}
DTSM .US/F                                             :Delta-T Shear {F13.4}
GR   .GAPI                                             :Calibrated Gamma-Ray SC {F13.4}
ECGR .GAPI                                             :Gamma-Ray {F13.4}
NPHI .CFCF                                             :Thermal Neutron Porosity (Ratio Method, Sandstone matrix) {F13.4}
NPL  .CFCF                                             :Neutron Porosity Limestone {F13.4}
TNPH .CFCF                                             :Thermal Neutron Porosity (Sandstone matrix with EC corrections) {F13.4}
GDEV .DEG                                              :HGNS Deviation {F13.4}
AHO10.OHMM                                             :Array Induction One Foot Resistivity A10 {F13.4}
AHO20.OHMM                                             :Array Induction One Foot Resistivity A20 {F13.4}
AHF30.OHMM                                             :Array Induction Four Foot Resistivity A30 {F13.4}
AHF60.OHMM                                             :Array Induction Four Foot Resistivity A60 {F13.4}
AHF90.OHMM                                             :Array Induction Four Foot Resistivity A90 {F13.4}
AHTCA.DEGF                                             :Array Induction Array Temperature Calibrated {F13.4}
RXOI .OHMM                                             :MCFL Very High Resolution Invaded Zone Resistivity {F13.4}
HCAL .IN                                               :HRCC Cal. caliper SC {F13.4}
HDRA .G/C3                                             :HRDD Density Correction {F13.4}
PEFZ .                                                 :HRDD Standard Resolution Formation Photoelectric Factor {F13.4}
RHOZ .G/C3                                             :HRDD Standard Resolution Formation Density {F13.4}
HMIN .OHMM                                             :MCFL Micro Inverse Resistivity {F13.4}
HMNO .OHMM                                             :MCFL Micro Normal Resistivity {F13.4}
RXOZ .OHMM                                             :MCFL Standard Resolution Invaded Zone Resistivity {F13.4}
HGR  .GAPI                                             :Hires Calibrated Gamma-Ray SC {F13.4}
#-----------------------------------------------------------------------------
# 
#     DEPT        BS           CS           TENS         DTCO         DTSM         GR           ECGR         NPHI         NPL          TNPH         GDEV        AHO10        AHO20        AHF30        AHF60        AHF90        AHTCA         RXOI         HCAL         HDRA         PEFZ         RHOZ         HMIN         HMNO         RXOZ         HGR
#
~A  
# ...
    8799.0      12.2500    1759.7244    3679.0000     131.0357     327.4335      72.4841      99.9028       0.4663       0.4023       0.4342       0.0000       1.4531       1.4997       1.5942       1.6327       1.5668     114.7500    5000.0366      12.0318      -0.0077       2.5704       2.2683       2.4114       1.2768       0.3278      69.5562
    8799.5      12.2500    1758.0201    3772.0000     130.8108     324.7088      75.0158     103.3483       0.4586       0.3958       0.4289       0.0000       1.4861       1.5454       1.6006       1.6418       1.5757     114.7655       0.1350      12.0207      -0.0079       2.5632       2.2771       0.2569       0.2544       0.3530      75.5910
    8800.0      12.2500    1759.9965    3688.0000     130.6638     324.9819      81.2221     111.8826       0.4467       0.3858       0.4348       0.0000       1.5210       1.5680       1.6058       1.6503       1.5840     114.7957    5000.0366      12.0169      -0.0077       2.5278       2.2861       0.9924       0.5956       0.3277      79.6140
    8800.5      12.2500    1758.3312    3705.0000     130.5732     322.3012      78.9998     108.8832       0.4272       0.3695       0.4270       0.0000       1.5315       1.5701       1.6100       1.6549       1.5889     114.7648    5000.0366      12.0318      -0.0086       2.5178       2.2859       2.0671       1.3077       0.7643      88.1749
    8801.0      12.2500    1756.4280    3645.0000     130.3454     323.1058      79.8639     110.1365       0.4391       0.3795       0.4107       0.0000       1.5025       1.5635       1.6107       1.6552       1.5898     114.7641       0.2700      12.0467      -0.0096       2.5915       2.2799       1.4216       0.7406       0.4587      68.6710
    8801.5      12.2500    1758.6588    3678.0000     130.0392     325.1802      75.1308     103.5506       0.4669       0.4028       0.4212       0.0000       1.4903       1.5440       1.6072       1.6521       1.5875     114.7632       0.2700      12.0318      -0.0092       2.7003       2.2759       1.8719       0.8790       0.4172      82.2029
    8802.0      12.2500    1756.8024    3727.0000     130.0869     326.3422      75.8783     104.6105       0.4929       0.4245       0.4425       0.8398       1.4747       1.5268       1.6007       1.6468       1.5827     114.7949    4584.1582      12.0392      -0.0075       2.7912       2.2743       2.2096       1.1999       0.3278      74.0185
    8802.5      12.2500    1758.6047    3698.0000     130.2397     326.7861      72.6017     100.2347       0.5110       0.4396       0.4637       1.0338       1.4694       1.5244       1.5951       1.6425       1.5793     114.7449       0.2700      12.0764      -0.0048       2.8201       2.2793       1.9910       0.8998       0.2295      71.4057
    8803.0      12.2500    1756.7406    3640.0000     130.4438     326.4778      71.0115      98.5082       0.4899       0.4220       0.4769       0.4515       1.4596       1.5052       1.5903       1.6401       1.5772     114.7596       0.0540      12.2027      -0.0040       2.8160       2.2818       1.1415       0.5489       0.2086      72.0555
    8803.5      12.2500    1758.5341    3702.0000     130.4447     322.0031      72.8376     101.0272       0.5089       0.4379       0.4588       0.0000       1.4876       1.5343       1.5918       1.6434       1.5798     114.8232       0.2700      12.1990      -0.0051       2.7951       2.2802       1.7958       0.8341       0.2295      69.2049
    8804.0      12.2500    1760.5837    3703.0000     130.5967     337.0692      77.1142     106.9142       0.4949       0.4261       0.4760       0.0000       1.4946       1.5379       1.5918       1.6446       1.5810     114.7584    3924.0796      12.1879      -0.0063       2.7472       2.2784       0.8863       0.6508       0.5737      76.9335
    8804.5      12.2500    1762.9263    3737.0000     130.5365     328.2969      81.3298     112.6957       0.4779       0.4120       0.4774       0.0000       1.5057       1.5558       1.5935       1.6489       1.5843     114.7917    4688.1445      12.1730      -0.0081       2.6465       2.2730      54.9734      79.5191       0.5737      86.2314
    8805.0      12.2500    1761.6796    3737.0000     130.6098     328.9674      82.2221     113.8365       0.4582       0.3955       0.4595       0.0000       1.5260       1.5789       1.5852       1.6421       1.5772     114.8259       0.1350      12.1507      -0.0082       2.4900       2.2759       0.3554       0.2906       0.1912      81.8516
    8805.5      12.2500    1764.1786    3769.0000     130.6733     329.3056      78.8801     109.1789       0.4565       0.3940       0.4370       0.3416       1.4941       1.5474       1.5710       1.6277       1.5633     114.7949       0.0900      12.1433      -0.0081       2.3265       2.2759       0.1367       0.1570       0.1583      81.3773
    8806.0      12.2500    1763.1107    3798.0000     130.7449     333.6920      76.4210     105.7752       0.4626       0.3992       0.4337       0.0000       1.4466       1.4729       1.5561       1.6118       1.5479     114.8268    3884.0256      12.1433      -0.0077       2.2300       2.2843       1.0899       0.5686       0.2086      75.1872
    8806.5      12.2500    1766.2961    3689.0000     130.7802     336.5912      74.4932     103.1647       0.4598       0.3968       0.4423       0.0000       1.4460       1.4764       1.5398       1.5982       1.5345     114.8072    3386.6899      12.1581      -0.0074       2.2310       2.2913       0.8811       0.5948       0.7649      74.4744
    8807.0      12.2500    1765.5308    3683.0000     130.8023     334.0985      75.3782     104.3611       0.4698       0.4052       0.4429       0.0000       1.4691       1.4941       1.5272       1.5780       1.5148     114.8052    5000.0366      12.1507      -0.0087       2.2829       2.2955      57.8019      83.0333    4066.5232      75.2415
    8807.5      12.2500    1764.1569    3734.0000     130.9441     330.5530      74.1372     102.6142       0.4806       0.4142       0.4667       0.0000       1.4656       1.4960       1.5166       1.5655       1.5023     114.8186    5000.0366      12.1433      -0.0083       2.3248       2.2987       1.1593       0.7386       0.5737      77.8431
    8808.0      12.2500    1763.0859    3762.0000     131.3492     336.2371      76.2843     105.5564       0.5026       0.4326       0.4807       0.0000       1.4293       1.4297       1.5092       1.5574       1.4936     114.7709       0.2700      12.1358      -0.0080       2.3506       2.2994       1.9317       0.8434       0.3530      70.7494
    8808.5      12.2500    1761.8621    3740.0000     131.4754     337.5037      72.0035      99.6609       0.4984       0.4291       0.4941       0.0000       1.4128       1.4273       1.5077       1.5559       1.4909     114.8353    3160.0916      12.1433      -0.0078       2.3521       2.2974       1.3855       0.6883       0.2700      80.5712
    8809.0      12.2500    1760.4633    3821.0000     131.8504     339.6678      76.6403     106.1680       0.5064       0.4358       0.4751       0.0000       1.4166       1.4540       1.5217       1.5687       1.5018     114.8199    3774.1030      12.1656      -0.0078       2.3391       2.2931       1.6437       0.8212       0.3278      64.9894
    8809.5      12.2500    1762.7886    3723.0000     130.5385     328.8367      77.2983     106.9895       0.5061       0.4355       0.4654       0.0000       1.4505       1.4633       1.5446       1.5974       1.5264     114.8368       0.1350      12.1433      -0.0078       2.3091       2.2912       2.1006       0.9591       0.3278      84.6620
    8810.0      12.2500    1765.4460    3752.0000     130.6606     324.0999      81.7480     113.2753       0.4960       0.4271       0.4641       0.0000       1.4881       1.4924       1.5735       1.6270       1.5514     114.8248    5000.0366      12.1730      -0.0077       2.2864       2.2912       0.9982       0.5328       0.2416      82.6677
