~VERSION INFORMATION
VERS.           2.0   :CWLS Log ASCII Standard - VERSION 2.0
WRAP.           NO    :One Line per depth step
PROD.  Schlumberger   :LAS Producer
PROG.  DLIS to ASCII 2.1                               :LAS Program name and version
CREA.                                                  :LAS Creation date {YYYY/MM/DD hh:mm}
SOURCE.     ait_DSI.dlis                               :DLIS File Name
FILE-ID.     HAIT  .018                                :File Identification Number
#--------------------------------------------------
~WELL INFORMATION
#MNEM.UNIT      DATA             DESCRIPTION
#---- ------ --------------   -----------------------------
STRT .F      7672.0          :START DEPTH     
STOP .F      13310.0         :STOP DEPTH     
STEP .F       0.5            :STEP     
NULL .          -999.25      :NULL VALUE
COMP .                                                 :COMPANY
CNTY .                                                 :COUNTY
STAT .                                                 :STATE
CTRY .                                                 :COUNTRY
UWI  .                                                 :UNIQUE WELL ID
DATE .        24-FEB-2000                              :LOG DATE {DD-MMM-YYYY}
SRVC .        Schlumberger                             :SERVICE COMPANY
LATI .DEG                                              :LATITUDE
LONG .DEG                                              :LONGITUDE
GDAT .                                                 :GeoDetic Datum
#-----------------------------------------------------------------------------
~PARAMETER INFORMATION
#MNEM.UNIT    VALUE                      DESCRIPTION
#---- -----   --------------------       ------------------------
TD   .F       13320.00000                :Total Depth
TNDTYP.        CMTD-B/A                  :Tension Device
TREF .LBF     1000.00000                 :Reference Tension of the Cable
DIFF .F          1.00000                 :Maximum Permitted Depth Difference
GGRD .DF/F       0.01000                 :Geothermal Gradient
GDEV .DEG        0.00000                 :Average Angular Deviation of Borehole from Normal
GTSE .        TEMP                       :Generalized Temperature Selection
SHT  .DEGF      67.99998                 :Surface Hole Temperature
BHS  .        OPEN                       :Borehole Status
MATR .        SAND                       :Rock Matrix for Neutron Porosity Corrections
GCSE .        HCAL                       :Generalized Caliper Selection
BHT  .DEGF     120.00000                 :Bottom Hole Temperature (used in calculations)
ETEM .DEGF      76.99998                 :HILT External Temperature
DHC  .        BS                         :Density Hole Correction
MDEN .G/C3       2.65000                 :Matrix Density
FD   .G/C3       1.00000                 :Fluid Density
SOCO .        YES                        :Standoff Correction Option
PTCO .        NO                         :Pressure/Temperature Correction Option
FSCO .        NO                         :Formation Salinity Correction Option
CCCO .        NO                         :Casing & Cement Thickness Correction Option
HSCO .        YES                        :Hole Size Correction Option
MWCO .        NO                         :Mud Weight Correction Option
MCCO .        NO                         :Mud Cake Correction Option
BSCO .        NO                         :Borehole Salinity Correction Option
SOCN .IN         0.12500                 :Standoff Distance
MCOR .        BARI                       :Mud Correction
BHFL .        WATER                      :Borehole Fluid Type
TIVD .F       11128.16992                :TVD of Tie-in Point
SPVD .F          0.00000                 :TVD of Starting Point
CD   .F          0.00000                 :Casing Shoe Depth
NLS  .                                   :Nominal Logging Speed
AMD  .DEG       96.63000                 :Azimuth of Maximum Deviation
STEM .DEGF      70.00000                 :Surface Temperature
TWS  .DEGF     100.00000                 :Temperature of Connate Water Sample
RW   .OHMM       1.00000                 :Resistivity of Connate Water
BPT  .                                   :Bubble Point Temperature
BSAL .PPM     62000.00000                :Borehole Salinity
MRT  .DEGF     120.00000                 :Maximum Recorded Temperature
RMFB .                                   :Resistivity of Mud Filtrate - BHT
RMB  .                                   :Resistivity of Mud - BHT
MCST .                                   :Mud Cake Sample Temperature
RMCS .                                   :Resistivity of Mud Cake Sample
MFST .                                   :Mud Filtrate Sample Temperature
RMFS .                                   :Resistivity of Mud Filtrate Sample
MST  .                                   :Mud Sample Temperature
RMS  .                                   :Resistivity of Mud Sample
DFPH .           8.40000                 :Drilling Fluid PH
DFL  .C3         0.00000                 :Drilling Fluid Loss
DFV  .S         71.00000                 :Drilling Fluid Viscosity
DFD  .LB/G      12.40000                 :Drilling Fluid Density
CWEI .LB/F      68.00000                 :Casing Weight
CSIZ .IN        13.37500                 :Current Casing Size
BS   .IN        12.25000                 :Bit Size
MHD  .DEG        6.79000                 :Maximum Hole Deviation
FLEV .F         10.00000                 :Fluid Level
CBLO .F       7966.00000                 :Casing Bottom of Logger
CBDR .F       7961.00000                 :Casing Bottom of Driller
CADT .                                   :Casing Depth To
CDF  .                                   :Casing Depth From
BSDT .                                   :Bit Size Depth To
BSDF .                                   :Bit Size Depth From
BLI  .F       13296.00000                :Bottom Log Interval
TDL  .F       13302.00000                :Total Depth - Logger
TDD  .F       13320.00000                :Total Depth - Driller
APD  .F         82.00000                 :Above Permanent Datum
EPD  .F          0.00000                 :Elevation of Permanent Datum
ELZ  .F         82.00000                 :Elevation of Log Zero
EDF  .F         82.00000                 :Elevation of Derrick Floor
EGL  .F       -3644.00000                :Elevation of Ground Level
EKB  .F         82.00000                 :Elevation of Kelly Bushing
LCC  .               440                 :Logging Company Code
MCSS .                                   :Mud Cake Sample Source
MFSS .                                   :Mud Filtrate Sample Source
MSS  .                                   :Mud Sample Source
TCS  .        18 00                      :Time Circulation Stopped
DCS  .                                   :Date Circulation Stopped
DFT  .        Oil Based Mud              :Drilling Fluid Type
CASG .                                   :Casing Grade
ENGI .                                   :Engineer's Name
TLAB .        11 00                      :Time Logger At Bottom
DLAB .                                   :Date Logger At Bottom
DATE .                                   :Date as Month-Day-Year
DMF  .        RKB                        :Drilling Measured From
LMF  .        RKB                        :Log Measured From
PDAT .        MSL                        :Permanent Datum
LCL  .F            23900                 :Logging Cable Length
RUN  .          1                        :RUN NUMBER
#-----------------------------------------------------------------------------
~CURVE INFORMATION
#MNEM.UNIT   API CODE                                  DESCRIPTION
#---- -----  --------                                  -----------------------
DEPT .F                                                :DEPTH (BOREHOLE) {F10.1}
BS   .IN                                               :Bit Size {F13.4}
CS   .F/HR                                             :Cable Speed {F13.4}
TENS .LBF                                              :Cable Tension {F13.4}
DTCO .US/F                                             :Delta-T Compressional {F13.4}
DTSM .US/F                                             :Delta-T Shear {F13.4}
GR   .GAPI                                             :Calibrated Gamma-Ray SC {F13.4}
ECGR .GAPI                                             :Gamma-Ray {F13.4}
NPHI .CFCF                                             :Thermal Neutron Porosity (Ratio Method, Sandstone matrix) {F13.4}
NPL  .CFCF                                             :Neutron Porosity Limestone {F13.4}
TNPH .CFCF                                             :Thermal Neutron Porosity (Sandstone matrix with EC corrections) {F13.4}
GDEV .DEG                                              :HGNS Deviation {F13.4}
AHO10.OHMM                                             :Array Induction One Foot Resistivity A10 {F13.4}
AHO20.OHMM                                             :Array Induction One Foot Resistivity A20 {F13.4}
AHF30.OHMM                                             :Array Induction Four Foot Resistivity A30 {F13.4}
AHF60.OHMM                                             :Array Induction Four Foot Resistivity A60 {F13.4}
AHF90.OHMM                                             :Array Induction Four Foot Resistivity A90 {F13.4}
AHTCA.DEGF                                             :Array Induction Array Temperature Calibrated {F13.4}
RXOI .OHMM                                             :MCFL Very High Resolution Invaded Zone Resistivity {F13.4}
HCAL .IN                                               :HRCC Cal. caliper SC {F13.4}
HDRA .G/C3                                             :HRDD Density Correction {F13.4}
PEFZ .                                                 :HRDD Standard Resolution Formation Photoelectric Factor {F13.4}
RHOZ .G/C3                                             :HRDD Standard Resolution Formation Density {F13.4}
HMIN .OHMM                                             :MCFL Micro Inverse Resistivity {F13.4}
HMNO .OHMM                                             :MCFL Micro Normal Resistivity {F13.4}
RXOZ .OHMM                                             :MCFL Standard Resolution Invaded Zone Resistivity {F13.4}
HGR  .GAPI                                             :Hires Calibrated Gamma-Ray SC {F13.4}
#-----------------------------------------------------------------------------
# 
#     DEPT        BS           CS           TENS         DTCO         DTSM         GR           ECGR         NPHI         NPL          TNPH         GDEV        AHO10        AHO20        AHF30        AHF60        AHF90        AHTCA         RXOI         HCAL         HDRA         PEFZ         RHOZ         HMIN         HMNO         RXOZ         HGR
#
~A  
# ...
   11041.5      12.2500    1760.8810    4371.0000     126.6512     331.7487      70.7952     100.7146       0.4694       0.4049       0.4553       3.2626       0.8919       0.9386       0.9418       0.9586       0.9238     128.4966    5000.0366      12.8938       0.0179       1.8088       2.2744      36.1849      52.7523      26.7924      72.3666
   11042.0      12.2500    1759.0927    4269.0000     126.9893     327.8017      73.9563     105.7902       0.4550       0.3928       0.4586       3.2743       0.8724       0.9083       0.9416       0.9581       0.9230     128.4654    4268.3804      13.0499       0.0117       1.7599       2.2699      65.5895      94.2798    4365.4219      69.4807
   11042.5      12.2500    1761.2222    4198.0000     126.5370     330.8360      71.7314     101.9524       0.4930       0.4246       0.4381       3.2413       0.8655       0.8904       0.9420       0.9583       0.9230     128.4657    4132.6948      12.8678       0.0049       1.5825       2.2577      49.1379      70.7039     430.0475      80.7863
   11043.0      12.2500    1759.4825    4221.0000     125.8531     329.5202      73.6281     105.0744       0.5067       0.4360       0.4587       3.2007       0.8885       0.9258       0.9426       0.9575       0.9222     128.4657    3623.0940      12.9830       0.0155       1.3356       2.2707      66.3774      66.2024      92.5991      65.6920
   11043.5      12.2500    1757.7438    4265.0000     125.6423     323.0243      70.0250      99.9846       0.5815       0.4986       0.4730       3.2145       0.8924       0.9177       0.9427       0.9576       0.9221     128.4493    3179.5657      12.9978       0.0293       1.1836       2.2831      40.3817      36.4215      60.4194      75.1770
   11044.0      12.2500    1755.7567    4226.0000     126.4920     319.5161      71.4844     102.3869       0.5669       0.4864       0.5482       3.2552       0.8847       0.9253       0.9431       0.9567       0.9210     128.4480    5000.0366      13.0870       0.0302       1.2304       2.2737      44.3595      47.1470      70.4513      69.2049
   11044.5      12.2500    1761.6812    4293.0000     126.5457     324.4596      71.6015     102.3687       0.5762       0.4942       0.5356       3.2884       0.8872       0.9148       0.9436       0.9555       0.9201     128.4792    4515.1709      13.0350       0.0199       1.3481       2.2541      33.3398      46.1364       0.4162      70.1312
   11045.0      12.2500    1760.2565    4406.0000     128.8374     322.7773      74.9851     105.4591       0.4866       0.4192       0.5317       3.2937       0.8742       0.8977       0.9449       0.9550       0.9197     128.4952       0.0450      12.5743       0.0279       1.4046       2.2701       1.0755       0.5425       0.4170      75.5283
   11045.5      12.2500    1760.8506    4278.0000     127.8710     317.5584      75.0479     106.6803       0.4458       0.3851       0.4537       3.3040       0.8889       0.9125       0.9498       0.9581       0.9226     128.4630    4000.6243      12.8715       0.0406       1.4608       2.2905      49.6333      65.9647       0.4136      78.6750
   11046.0      12.2500    1760.7932    4313.0000     126.8396     313.6376      72.0983     102.5549       0.4311       0.3728       0.4324       3.3019       0.9039       0.9487       0.9586       0.9653       0.9295     128.5110       4.8681      12.8901       0.0425       1.6707       2.2912      16.1485      16.1602      47.8095      69.5301
   11046.5      12.2500    1758.9923    4355.0000     125.2041     314.6042      69.0660      99.0890       0.4391       0.3795       0.4216       3.2833       0.8903       0.9160       0.9690       0.9733       0.9370     128.5107    3827.8303      13.1353       0.0219       1.9530       2.2592     134.3581     144.4080      33.8026      66.6829
   11047.0      12.2500    1757.1836    4334.0000     126.0234     314.7675      67.8384      97.1647       0.4762       0.4105       0.4223       3.2726       0.9413       0.9643       0.9783       0.9823       0.9456     128.5100      14.0088      13.0870       0.0155       2.0470       2.2623      17.8314      21.3866      99.8697      70.2588
   11047.5      12.2500    1755.1165    4334.0000     126.9669     312.2682      69.3592      98.4247       0.4905       0.4225       0.4500       3.2527       0.9618       0.9878       0.9880       0.9912       0.9540     128.4603    4343.3984      12.8232       0.0207       1.9221       2.2791      75.8762     108.6826      54.1893      66.3823
   11048.0      12.2500    1756.1941    4337.0000     128.6252     304.9565      66.3547      94.7193       0.5415       0.4651       0.4599       3.2504       0.9357       0.9769       0.9972       0.9987       0.9613     128.4422    4554.3652      12.9904       0.0257       1.7384       2.2866      42.4758      39.6927     114.9617      71.2435
   11048.5      12.2500    1758.8716    4307.0000     128.2892     303.3215      64.8890      92.7477       0.5336       0.4585       0.4963       3.2313       0.9352       0.9476       1.0051       1.0070       0.9693     128.4918    4604.6768      13.0276       0.0163       1.5854       2.2557      72.5900      69.5592     114.9628      61.2907
   11049.0      12.2500    1756.7963    4412.0000     129.9725     310.3851      65.4982      92.0170       0.5120       0.4405       0.4708       3.2426       0.9672       0.9986       1.0113       1.0156       0.9775     128.4737    4346.6885      12.5445       0.0142       1.3678       2.2539      47.4528      68.5090    1932.3055      62.7076
   11049.5      12.2500    1759.7991    4382.0000     128.3938     308.8842      69.3224      97.2706       0.4784       0.4124       0.4539       3.2913       0.9782       0.9943       1.0163       1.0232       0.9848     128.4931     385.0406      12.5111       0.0177       1.1198       2.2761      36.1313      51.0815    1901.0023      73.0692
   11050.0      12.2500    1757.1052    4333.0000     127.8132     312.1602      74.5846     104.1550       0.4490       0.3878       0.4467       3.3083       0.9957       1.0303       1.0180       1.0259       0.9876     128.5092    4237.7046      12.3811       0.0185       0.9536       2.2969      38.4562      55.6562    1838.3665      72.7179
   11050.5      12.2500    1758.9508    4372.0000     126.9283     303.7231      73.1794     101.7419       0.4315       0.3732       0.4416       3.2814       0.9855       0.9930       1.0130       1.0172       0.9799     128.4777    3259.5642      12.2622       0.0097       1.0445       2.2885      40.2843      57.8986    3853.0781      78.4435
   11051.0      12.2500    1762.5004    4340.0000     126.0443     299.6814      73.4136     102.3363       0.4294       0.3713       0.4271       3.2467       0.9866       1.0327       0.9992       1.0009       0.9651     128.4757    4203.6924      12.3328      -0.0018       1.2105       2.2735      35.9741      52.1172    2912.6509      68.8537
   11051.5      12.2500    1754.5459    4275.0000     126.5141     299.2370      73.6550     103.4343       0.4718       0.4068       0.4215       3.2327       0.9130       0.9341       0.9805       0.9808       0.9467     128.5072    1389.3540      12.5334      -0.0042       1.3067       2.2762       2.4706       1.9617       2.2932      73.4205
   11052.0      12.2500    1756.9879    4275.0000     126.9204     302.7479      73.9510     104.0890       0.4648       0.4010       0.4471       3.2397       0.8860       0.9047       0.9619       0.9624       0.9301     128.5233    4370.0063      12.5966      -0.0044       1.2242       2.2775       1.7053       1.1825       2.2932      78.6899
   11052.5      12.2500    1754.8928    4274.0000     127.6292     303.4734      72.7800     102.9641       0.4961       0.4272       0.4386       3.2455       0.8872       0.9110       0.9463       0.9469       0.9161     128.5716    5000.0366      12.7378      -0.0023       1.1333       2.2726      31.7063      46.2485       2.2936      69.6611
