~VERSION INFORMATION
VERS.           2.0   :CWLS Log ASCII Standard - VERSION 2.0
WRAP.           NO    :One Line per depth step
PROD.  Schlumberger   :LAS Producer
PROG.  DLIS to ASCII 2.1                               :LAS Program name and version
CREA.                                                  :LAS Creation date {YYYY/MM/DD hh:mm}
SOURCE.     ait_DSI.dlis                               :DLIS File Name
FILE-ID.     HAIT  .018                                :File Identification Number
#--------------------------------------------------
~WELL INFORMATION
#MNEM.UNIT      DATA             DESCRIPTION
#---- ------ --------------   -----------------------------
STRT .F      7672.0          :START DEPTH     
STOP .F      13310.0         :STOP DEPTH     
STEP .F       0.5            :STEP     
NULL .          -999.25      :NULL VALUE
COMP .                                                 :COMPANY
CNTY .                                                 :COUNTY
STAT .                                                 :STATE
CTRY .                                                 :COUNTRY
UWI  .                                                 :UNIQUE WELL ID
DATE .        24-FEB-2000                              :LOG DATE {DD-MMM-YYYY}
SRVC .        Schlumberger                             :SERVICE COMPANY
LATI .DEG                                              :LATITUDE
LONG .DEG                                              :LONGITUDE
GDAT .                                                 :GeoDetic Datum
#-----------------------------------------------------------------------------
~PARAMETER INFORMATION
#MNEM.UNIT    VALUE                      DESCRIPTION
#---- -----   --------------------       ------------------------
TD   .F       13320.00000                :Total Depth
TNDTYP.        CMTD-B/A                  :Tension Device
TREF .LBF     1000.00000                 :Reference Tension of the Cable
DIFF .F          1.00000                 :Maximum Permitted Depth Difference
GGRD .DF/F       0.01000                 :Geothermal Gradient
GDEV .DEG        0.00000                 :Average Angular Deviation of Borehole from Normal
GTSE .        TEMP                       :Generalized Temperature Selection
SHT  .DEGF      67.99998                 :Surface Hole Temperature
BHS  .        OPEN                       :Borehole Status
MATR .        SAND                       :Rock Matrix for Neutron Porosity Corrections
GCSE .        HCAL                       :Generalized Caliper Selection
BHT  .DEGF     120.00000                 :Bottom Hole Temperature (used in calculations)
ETEM .DEGF      76.99998                 :HILT External Temperature
DHC  .        BS                         :Density Hole Correction
MDEN .G/C3       2.65000                 :Matrix Density
FD   .G/C3       1.00000                 :Fluid Density
SOCO .        YES                        :Standoff Correction Option
PTCO .        NO                         :Pressure/Temperature Correction Option
FSCO .        NO                         :Formation Salinity Correction Option
CCCO .        NO                         :Casing & Cement Thickness Correction Option
HSCO .        YES                        :Hole Size Correction Option
MWCO .        NO                         :Mud Weight Correction Option
MCCO .        NO                         :Mud Cake Correction Option
BSCO .        NO                         :Borehole Salinity Correction Option
SOCN .IN         0.12500                 :Standoff Distance
MCOR .        BARI                       :Mud Correction
BHFL .        WATER                      :Borehole Fluid Type
TIVD .F       11128.16992                :TVD of Tie-in Point
SPVD .F          0.00000                 :TVD of Starting Point
CD   .F          0.00000                 :Casing Shoe Depth
NLS  .                                   :Nominal Logging Speed
AMD  .DEG       96.63000                 :Azimuth of Maximum Deviation
STEM .DEGF      70.00000                 :Surface Temperature
TWS  .DEGF     100.00000                 :Temperature of Connate Water Sample
RW   .OHMM       1.00000                 :Resistivity of Connate Water
BPT  .                                   :Bubble Point Temperature
BSAL .PPM     62000.00000                :Borehole Salinity
MRT  .DEGF     120.00000                 :Maximum Recorded Temperature
RMFB .                                   :Resistivity of Mud Filtrate - BHT
RMB  .                                   :Resistivity of Mud - BHT
MCST .                                   :Mud Cake Sample Temperature
RMCS .                                   :Resistivity of Mud Cake Sample
MFST .                                   :Mud Filtrate Sample Temperature
RMFS .                                   :Resistivity of Mud Filtrate Sample
MST  .                                   :Mud Sample Temperature
RMS  .                                   :Resistivity of Mud Sample
DFPH .           8.40000                 :Drilling Fluid PH
DFL  .C3         0.00000                 :Drilling Fluid Loss
DFV  .S         71.00000                 :Drilling Fluid Viscosity
DFD  .LB/G      12.40000                 :Drilling Fluid Density
CWEI .LB/F      68.00000                 :Casing Weight
CSIZ .IN        13.37500                 :Current Casing Size
BS   .IN        12.25000                 :Bit Size
MHD  .DEG        6.79000                 :Maximum Hole Deviation
FLEV .F         10.00000                 :Fluid Level
CBLO .F       7966.00000                 :Casing Bottom of Logger
CBDR .F       7961.00000                 :Casing Bottom of Driller
CADT .                                   :Casing Depth To
CDF  .                                   :Casing Depth From
BSDT .                                   :Bit Size Depth To
BSDF .                                   :Bit Size Depth From
BLI  .F       13296.00000                :Bottom Log Interval
TDL  .F       13302.00000                :Total Depth - Logger
TDD  .F       13320.00000                :Total Depth - Driller
APD  .F         82.00000                 :Above Permanent Datum
EPD  .F          0.00000                 :Elevation of Permanent Datum
ELZ  .F         82.00000                 :Elevation of Log Zero
EDF  .F         82.00000                 :Elevation of Derrick Floor
EGL  .F       -3644.00000                :Elevation of Ground Level
EKB  .F         82.00000                 :Elevation of Kelly Bushing
LCC  .               440                 :Logging Company Code
MCSS .                                   :Mud Cake Sample Source
MFSS .                                   :Mud Filtrate Sample Source
MSS  .                                   :Mud Sample Source
TCS  .        18 00                      :Time Circulation Stopped
DCS  .                                   :Date Circulation Stopped
DFT  .        Oil Based Mud              :Drilling Fluid Type
CASG .                                   :Casing Grade
ENGI .                                   :Engineer's Name
TLAB .        11 00                      :Time Logger At Bottom
DLAB .                                   :Date Logger At Bottom
DATE .                                   :Date as Month-Day-Year
DMF  .        RKB                        :Drilling Measured From
LMF  .        RKB                        :Log Measured From
PDAT .        MSL                        :Permanent Datum
LCL  .F            23900                 :Logging Cable Length
RUN  .          1                        :RUN NUMBER
#-----------------------------------------------------------------------------
~CURVE INFORMATION
#MNEM.UNIT   API CODE                                  DESCRIPTION
#---- -----  --------                                  -----------------------
DEPT .F                                                :DEPTH (BOREHOLE) {F10.1}
BS   .IN                                               :Bit Size {F13.4}
CS   .F/HR                                             :Cable Speed {F13.4}
TENS .LBF                                              :Cable Tension {F13.4}
DTCO .US/F                                             :Delta-T Compressional {F13.4}
DTSM .US/F                                             :Delta-T Shear {F13.4}
GR   .GAPI                                             :Calibrated Gamma-Ray SC {F13.4}
ECGR .GAPI                                             :Gamma-Ray {F13.4}
NPHI .CFCF                                             :Thermal Neutron Porosity (Ratio Method, Sandstone matrix) {F13.4}
NPL  .CFCF                                             :Neutron Porosity Limestone {F13.4}
TNPH .CFCF                                             :Thermal Neutron Porosity (Sandstone matrix with EC corrections) {F13.4}
GDEV .DEG                                              :HGNS Deviation {F13.4}
AHO10.OHMM                                             :Array Induction One Foot Resistivity A10 {F13.4}
AHO20.OHMM                                             :Array Induction One Foot Resistivity A20 {F13.4}
AHF30.OHMM                                             :Array Induction Four Foot Resistivity A30 {F13.4}
AHF60.OHMM                                             :Array Induction Four Foot Resistivity A60 {F13.4}
AHF90.OHMM                                             :Array Induction Four Foot Resistivity A90 {F13.4}
AHTCA.DEGF                                             :Array Induction Array Temperature Calibrated {F13.4}
RXOI .OHMM                                             :MCFL Very High Resolution Invaded Zone Resistivity {F13.4}
HCAL .IN                                               :HRCC Cal. caliper SC {F13.4}
HDRA .G/C3                                             :HRDD Density Correction {F13.4}
PEFZ .                                                 :HRDD Standard Resolution Formation Photoelectric Factor {F13.4}
RHOZ .G/C3                                             :HRDD Standard Resolution Formation Density {F13.4}
HMIN .OHMM                                             :MCFL Micro Inverse Resistivity {F13.4}
HMNO .OHMM                                             :MCFL Micro Normal Resistivity {F13.4}
RXOZ .OHMM                                             :MCFL Standard Resolution Invaded Zone Resistivity {F13.4}
HGR  .GAPI                                             :Hires Calibrated Gamma-Ray SC {F13.4}
#-----------------------------------------------------------------------------
# 
#     DEPT        BS           CS           TENS         DTCO         DTSM         GR           ECGR         NPHI         NPL          TNPH         GDEV        AHO10        AHO20        AHF30        AHF60        AHF90        AHTCA         RXOI         HCAL         HDRA         PEFZ         RHOZ         HMIN         HMNO         RXOZ         HGR
#
~A  
# ...
    8419.5      12.2500    1763.0707    3606.0000     128.6534     312.7691      78.9442     108.6678       0.4320       0.3736       0.4547       0.0000       1.6522       1.7263       1.7702       1.7945       1.7097     112.2573       0.1350      11.9984      -0.0089       2.7332       2.2645       0.2391       0.2473       0.1530      79.4416
    8420.0      12.2500    1760.8442    3678.0000     128.2878     310.9362      77.1360     106.1033       0.4365       0.3774       0.4201       0.5083       1.6085       1.6872       1.7598       1.7811       1.6967     112.1787       0.1350      11.9798      -0.0084       2.6363       2.2674       0.1833       0.1981       0.2186      74.4949
    8420.5      12.2500    1759.7974    3496.0000     128.0734     312.9183      76.0374     104.5772       0.4654       0.4015       0.4203       0.7870       1.5801       1.6438       1.7502       1.7686       1.6853     112.2438    4842.3208      11.9761      -0.0089       2.5160       2.2634       0.5633       0.4110       0.1912      77.8386
    8421.0      12.2500    1758.1036    3492.0000     128.6337     313.0163      77.3254     106.3034       0.4979       0.4287       0.4405       0.7730       1.5915       1.6627       1.7443       1.7597       1.6770     112.2766       0.0900      11.9649      -0.0095       2.4098       2.2601       0.1658       0.1827       0.2086      76.0446
    8421.5      12.2500    1760.0919    3541.0000     128.6251     312.3914      76.5575     105.3376       0.4968       0.4277       0.4626       0.3996       1.6053       1.6727       1.7430       1.7565       1.6736     112.2136       0.2700      11.9872      -0.0107       2.3439       2.2575       0.2438       0.2477       0.1765      78.3385
    8422.0      12.2500    1760.4176    3496.0000     128.4945     312.6534      78.3745     107.8069       0.5305       0.4559       0.4712       0.0566       1.6174       1.6806       1.7437       1.7566       1.6740     112.2472       0.2700      11.9798      -0.0111       2.3252       2.2586       0.2615       0.2632       0.1912      75.5282
    8422.5      12.2500    1760.7898    3529.0000     128.2427     311.8888      79.5219     109.4630       0.5430       0.4664       0.5009       0.2321       1.6254       1.6944       1.7442       1.7562       1.6736     112.2619       0.0900      11.9984      -0.0110       2.3167       2.2604       0.1465       0.1657       0.1481      80.2217
    8423.0      12.2500    1758.7386    3600.0000     127.9235     311.2091      77.8122     107.0944       0.5364       0.4609       0.5036       0.0000       1.6261       1.6933       1.7431       1.7540       1.6718     112.2425       0.2700      11.9947      -0.0102       2.3206       2.2652       0.1465       0.1657       0.1311      81.1701
    8423.5      12.2500    1761.2996    3589.0000     127.6161     311.1435      72.0390      99.1767       0.5047       0.4343       0.4869       0.0000       1.6050       1.6623       1.7437       1.7543       1.6722     112.3381       0.1350      12.0021      -0.0098       2.3184       2.2722       0.2262       0.2257       0.1639      69.8882
    8424.0      12.2500    1759.3213    3520.0000     127.4937     313.0122      68.9009      94.8430       0.4800       0.4137       0.4699       0.0000       1.6068       1.6607       1.7432       1.7545       1.6726     112.2741       0.2699      11.9984      -0.0104       2.3427       2.2735       0.9814       0.6275       0.2550      63.9354
    8424.5      12.2500    1761.4835    3658.0000     127.5176     312.5576      71.3133      98.1637       0.4690       0.4045       0.4643       0.0000       1.6200       1.6769       1.7506       1.7606       1.6786     112.2755    5000.0366      11.9984      -0.0113       2.3748       2.2696       1.5606       0.9589       0.6556      72.3665
    8425.0      12.2500    1758.5271    3600.0000     128.6320     304.0576      75.2947     103.6000       0.4481       0.3870       0.4493       0.0000       1.5720       1.6494       1.7659       1.7785       1.6950     112.2909    5000.0366      11.9872      -0.0113       2.4165       2.2683       1.1898       0.7485       0.6556      77.6762
    8425.5      12.2500    1758.1377    3614.0000     130.2751     301.8382      77.5195     106.6309       0.4200       0.3635       0.4272       0.0000       1.5814       1.6325       1.7860       1.7998       1.7144     112.2574    5000.0366      11.9798      -0.0098       2.4500       2.2752       0.6604       0.4284       0.2700      75.8795
    8426.0      12.2500    1756.2069    3555.0000     129.7083     306.1976      73.4209     100.8492       0.4279       0.3702       0.3986       0.3369       1.7115       1.7707       1.8094       1.8218       1.7343     112.3045       0.2700      11.9426      -0.0090       2.4755       2.2738       0.1465       0.1657       0.1996      79.0411
    8426.5      12.2500    1757.9242    3529.0000     129.7251     307.5882      71.3748      98.0108       0.4338       0.3751       0.3980       0.3490       1.7747       1.8554       1.8265       1.8406       1.7516     112.2750       0.2700      11.9352      -0.0082       2.4770       2.2705       0.7575       0.4483       0.2295      65.8205
    8427.0      12.2500    1755.4636    3596.0000     132.8232     309.3179      68.0961      93.7485       0.4587       0.3959       0.4111       0.2704       1.7731       1.8648       1.8329       1.8455       1.7559     112.2911       0.2700      12.0021      -0.0102       2.4655       2.2602       1.9943       1.2829       0.5100      70.0176
    8427.5      12.2500    1757.5566    3585.0000     135.0398     307.1240      72.4629      99.7037       0.4719       0.4070       0.4455       0.0000       1.6669       1.7226       1.8300       1.8420       1.7525     112.2911    5000.0366      11.9872      -0.0101       2.4614       2.2696       1.3107       0.7349       0.3825      69.2049
    8428.0      12.2500    1755.5428    3565.0000     135.6848     319.7530      73.8064     101.5810       0.4668       0.4027       0.4597       0.0000       1.6462       1.7393       1.8211       1.8316       1.7427     112.3360       0.2700      11.9947      -0.0107       2.4629       2.2770       0.1833       0.1981       0.2086      77.9275
    8428.5      12.2500    1753.2413    3579.0000     135.5431     318.4132      74.9291     103.1555       0.4769       0.4111       0.4511       0.0000       1.6222       1.6881       1.8128       1.8221       1.7339     112.3346       0.1350      12.0021      -0.0114       2.4402       2.2710       0.1586       0.1763       0.1765      74.3199
    8429.0      12.2500    1754.5349    3569.0000     136.8271     316.0610      72.3187      99.5052       0.4680       0.4037       0.4567       0.0000       1.6987       1.7901       1.8076       1.8150       1.7271     112.2723       0.2700      11.9872      -0.0131       2.3976       2.2469       0.1740       0.1899       0.1912      72.6047
    8429.5      12.2500    1757.9301    3531.0000     137.6367     332.4053      72.7766      99.9642       0.5005       0.4308       0.4525       0.5052       1.6518       1.7164       1.8019       1.8077       1.7201     112.3214    5000.0366      11.9426      -0.0137       2.3679       2.2273       0.2757       0.2703       0.1836      70.6101
    8430.0      12.2500    1761.8102    3531.0000     138.1070     342.1988      72.8249     100.0876       0.4887       0.4210       0.4797       0.5513       1.6423       1.7139       1.7969       1.8015       1.7142     112.3375       0.1350      11.9575      -0.0122       2.3992       2.2249       0.1658       0.1827       0.2086      75.3420
    8430.5      12.2500    1760.4039    3521.0000     137.3346     351.6013      71.9599      98.8848       0.4765       0.4107       0.4715       0.4744       1.6508       1.7200       1.7925       1.7955       1.7089     112.3058    5000.0366      11.9538      -0.0099       2.4624       2.2277       0.4812       0.3833       0.2700      72.7178
