~VERSION INFORMATION
VERS.           2.0   :CWLS Log ASCII Standard - VERSION 2.0
WRAP.           NO    :One Line per depth step
PROD.  Schlumberger   :LAS Producer
PROG.  DLIS to ASCII 2.1                               :LAS Program name and version
CREA.                                                  :LAS Creation date {YYYY/MM/DD hh:mm}
SOURCE.     ait_DSI.dlis                               :DLIS File Name
FILE-ID.     HAIT  .018                                :File Identification Number
#--------------------------------------------------
~WELL INFORMATION
#MNEM.UNIT      DATA             DESCRIPTION
#---- ------ --------------   -----------------------------
STRT .F      7672.0          :START DEPTH     
STOP .F      13310.0         :STOP DEPTH     
STEP .F       0.5            :STEP     
NULL .          -999.25      :NULL VALUE
COMP .                                                 :COMPANY
CNTY .                                                 :COUNTY
STAT .                                                 :STATE
CTRY .                                                 :COUNTRY
UWI  .                                                 :UNIQUE WELL ID
DATE .        24-FEB-2000                              :LOG DATE {DD-MMM-YYYY}
SRVC .        Schlumberger                             :SERVICE COMPANY
LATI .DEG                                              :LATITUDE
LONG .DEG                                              :LONGITUDE
GDAT .                                                 :GeoDetic Datum
#-----------------------------------------------------------------------------
~PARAMETER INFORMATION
#MNEM.UNIT    VALUE                      DESCRIPTION
#---- -----   --------------------       ------------------------
TD   .F       13320.00000                :Total Depth
TNDTYP.        CMTD-B/A                  :Tension Device
TREF .LBF     1000.00000                 :Reference Tension of the Cable
DIFF .F          1.00000                 :Maximum Permitted Depth Difference
GGRD .DF/F       0.01000                 :Geothermal Gradient
GDEV .DEG        0.00000                 :Average Angular Deviation of Borehole from Normal
GTSE .        TEMP                       :Generalized Temperature Selection
SHT  .DEGF      67.99998                 :Surface Hole Temperature
BHS  .        OPEN                       :Borehole Status
MATR .        SAND                       :Rock Matrix for Neutron Porosity Corrections
GCSE .        HCAL                       :Generalized Caliper Selection
BHT  .DEGF     120.00000                 :Bottom Hole Temperature (used in calculations)
ETEM .DEGF      76.99998                 :HILT External Temperature
DHC  .        BS                         :Density Hole Correction
MDEN .G/C3       2.65000                 :Matrix Density
FD   .G/C3       1.00000                 :Fluid Density
SOCO .        YES                        :Standoff Correction Option
PTCO .        NO                         :Pressure/Temperature Correction Option
FSCO .        NO                         :Formation Salinity Correction Option
CCCO .        NO                         :Casing & Cement Thickness Correction Option
HSCO .        YES                        :Hole Size Correction Option
MWCO .        NO                         :Mud Weight Correction Option
MCCO .        NO                         :Mud Cake Correction Option
BSCO .        NO                         :Borehole Salinity Correction Option
SOCN .IN         0.12500                 :Standoff Distance
MCOR .        BARI                       :Mud Correction
BHFL .        WATER                      :Borehole Fluid Type
TIVD .F       11128.16992                :TVD of Tie-in Point
SPVD .F          0.00000                 :TVD of Starting Point
CD   .F          0.00000                 :Casing Shoe Depth
NLS  .                                   :Nominal Logging Speed
AMD  .DEG       96.63000                 :Azimuth of Maximum Deviation
STEM .DEGF      70.00000                 :Surface Temperature
TWS  .DEGF     100.00000                 :Temperature of Connate Water Sample
RW   .OHMM       1.00000                 :Resistivity of Connate Water
BPT  .                                   :Bubble Point Temperature
BSAL .PPM     62000.00000                :Borehole Salinity
MRT  .DEGF     120.00000                 :Maximum Recorded Temperature
RMFB .                                   :Resistivity of Mud Filtrate - BHT
RMB  .                                   :Resistivity of Mud - BHT
MCST .                                   :Mud Cake Sample Temperature
RMCS .                                   :Resistivity of Mud Cake Sample
MFST .                                   :Mud Filtrate Sample Temperature
RMFS .                                   :Resistivity of Mud Filtrate Sample
MST  .                                   :Mud Sample Temperature
RMS  .                                   :Resistivity of Mud Sample
DFPH .           8.40000                 :Drilling Fluid PH
DFL  .C3         0.00000                 :Drilling Fluid Loss
DFV  .S         71.00000                 :Drilling Fluid Viscosity
DFD  .LB/G      12.40000                 :Drilling Fluid Density
CWEI .LB/F      68.00000                 :Casing Weight
CSIZ .IN        13.37500                 :Current Casing Size
BS   .IN        12.25000                 :Bit Size
MHD  .DEG        6.79000                 :Maximum Hole Deviation
FLEV .F         10.00000                 :Fluid Level
CBLO .F       7966.00000                 :Casing Bottom of Logger
CBDR .F       7961.00000                 :Casing Bottom of Driller
CADT .                                   :Casing Depth To
CDF  .                                   :Casing Depth From
BSDT .                                   :Bit Size Depth To
BSDF .                                   :Bit Size Depth From
BLI  .F       13296.00000                :Bottom Log Interval
TDL  .F       13302.00000                :Total Depth - Logger
TDD  .F       13320.00000                :Total Depth - Driller
APD  .F         82.00000                 :Above Permanent Datum
EPD  .F          0.00000                 :Elevation of Permanent Datum
ELZ  .F         82.00000                 :Elevation of Log Zero
EDF  .F         82.00000                 :Elevation of Derrick Floor
EGL  .F       -3644.00000                :Elevation of Ground Level
EKB  .F         82.00000                 :Elevation of Kelly Bushing
LCC  .               440                 :Logging Company Code
MCSS .                                   :Mud Cake Sample Source
MFSS .                                   :Mud Filtrate Sample Source
MSS  .                                   :Mud Sample Source
TCS  .        18 00                      :Time Circulation Stopped
DCS  .                                   :Date Circulation Stopped
DFT  .        Oil Based Mud              :Drilling Fluid Type
CASG .                                   :Casing Grade
ENGI .                                   :Engineer's Name
TLAB .        11 00                      :Time Logger At Bottom
DLAB .                                   :Date Logger At Bottom
DATE .                                   :Date as Month-Day-Year
DMF  .        RKB                        :Drilling Measured From
LMF  .        RKB                        :Log Measured From
PDAT .        MSL                        :Permanent Datum
LCL  .F            23900                 :Logging Cable Length
RUN  .          1                        :RUN NUMBER
#-----------------------------------------------------------------------------
~CURVE INFORMATION
#MNEM.UNIT   API CODE                                  DESCRIPTION
#---- -----  --------                                  -----------------------
DEPT .F                                                :DEPTH (BOREHOLE) {F10.1}
BS   .IN                                               :Bit Size {F13.4}
CS   .F/HR                                             :Cable Speed {F13.4}
TENS .LBF                                              :Cable Tension {F13.4}
DTCO .US/F                                             :Delta-T Compressional {F13.4}
DTSM .US/F                                             :Delta-T Shear {F13.4}
GR   .GAPI                                             :Calibrated Gamma-Ray SC {F13.4}
ECGR .GAPI                                             :Gamma-Ray {F13.4}
NPHI .CFCF                                             :Thermal Neutron Porosity (Ratio Method, Sandstone matrix) {F13.4}
NPL  .CFCF                                             :Neutron Porosity Limestone {F13.4}
TNPH .CFCF                                             :Thermal Neutron Porosity (Sandstone matrix with EC corrections) {F13.4}
GDEV .DEG                                              :HGNS Deviation {F13.4}
AHO10.OHMM                                             :Array Induction One Foot Resistivity A10 {F13.4}
AHO20.OHMM                                             :Array Induction One Foot Resistivity A20 {F13.4}
AHF30.OHMM                                             :Array Induction Four Foot Resistivity A30 {F13.4}
AHF60.OHMM                                             :Array Induction Four Foot Resistivity A60 {F13.4}
AHF90.OHMM                                             :Array Induction Four Foot Resistivity A90 {F13.4}
AHTCA.DEGF                                             :Array Induction Array Temperature Calibrated {F13.4}
RXOI .OHMM                                             :MCFL Very High Resolution Invaded Zone Resistivity {F13.4}
HCAL .IN                                               :HRCC Cal. caliper SC {F13.4}
HDRA .G/C3                                             :HRDD Density Correction {F13.4}
PEFZ .                                                 :HRDD Standard Resolution Formation Photoelectric Factor {F13.4}
RHOZ .G/C3                                             :HRDD Standard Resolution Formation Density {F13.4}
HMIN .OHMM                                             :MCFL Micro Inverse Resistivity {F13.4}
HMNO .OHMM                                             :MCFL Micro Normal Resistivity {F13.4}
RXOZ .OHMM                                             :MCFL Standard Resolution Invaded Zone Resistivity {F13.4}
HGR  .GAPI                                             :Hires Calibrated Gamma-Ray SC {F13.4}
#-----------------------------------------------------------------------------
# 
#     DEPT        BS           CS           TENS         DTCO         DTSM         GR           ECGR         NPHI         NPL          TNPH         GDEV        AHO10        AHO20        AHF30        AHF60        AHF90        AHTCA         RXOI         HCAL         HDRA         PEFZ         RHOZ         HMIN         HMNO         RXOZ         HGR
#
~A  
    7672.0      12.2500    1745.8560    3461.0000      56.3321     399.0113      35.4628      49.2699       0.6544       0.5596       0.7133       0.4267    1950.0000    1950.0000    1950.0000      47.0348     129.1123     108.6089       0.2700      12.2436      -0.4593       0.9166       2.3919       0.2609       0.2665       0.2700      33.4702
    7672.5      12.2500    1745.8560    3461.0000      56.3321     399.0113      35.4628      49.2699       0.6544       0.5596       0.7133       0.4267    1950.0000    1950.0000    1950.0000      47.0348     129.1123     108.6089       0.2700      12.2436      -0.4593       0.9166       2.3919       0.2609       0.2665       0.2700      33.4702
    7673.0      12.2500    1745.8560    3461.0000      56.3321     399.0113      35.4628      49.2699       0.6544       0.5596       0.7133       0.4267    1950.0000    1950.0000    1950.0000      47.0348     129.1123     108.6089       0.2700      12.2436      -0.4593       0.9166       2.3919       0.2609       0.2665       0.2700      33.4702
    7673.5      12.2500    1745.8560    3461.0000      56.3321     399.0113      35.4628      49.2699       0.6544       0.5596       0.7133       0.4267    1950.0000    1950.0000    1950.0000      47.0348     129.1123     108.6089       0.2700      12.2436      -0.4593       0.9166       2.3919       0.2609       0.2665       0.2700      33.4702
    7674.0      12.2500    1745.8560    3461.0000      56.3321     399.0113      35.4628      49.2699       0.6544       0.5596       0.7133       0.4267    1950.0000    1950.0000    1950.0000      47.0348     129.1123     108.6089       0.2700      12.2436      -0.4593       0.9166       2.3919       0.2609       0.2665       0.2700      33.4702
    7674.5      12.2500    1745.8560    3461.0000      56.3321     399.0113      35.4628      49.2699       0.6544       0.5596       0.7133       0.4267    1950.0000    1950.0000    1950.0000      47.0348     129.1123     108.6089       0.2700      12.2436      -0.4593       0.9166       2.3919       0.2609       0.2665       0.2700      33.4702
    7675.0      12.2500    1745.8560    3461.0000      56.3321     399.0113      35.4628      49.2699       0.6544       0.5596       0.7133       0.4267    1950.0000    1950.0000    1950.0000      47.0348     129.1123     108.6089       0.2700      12.2436      -0.4593       0.9166       2.3919       0.2609       0.2665       0.2700      33.4702
    7675.5      12.2500    1745.8560    3461.0000      56.3321     399.0113      35.4628      49.2699       0.6544       0.5596       0.7133       0.4267    1950.0000    1950.0000    1950.0000      47.0348     129.1123     108.6089       0.2700      12.2436      -0.4593       0.9166       2.3919       0.2609       0.2665       0.2700      33.4702
    7676.0      12.2500    1745.8560    3461.0000      56.3321     399.0113      35.4628      49.2699       0.6544       0.5596       0.7133       0.4267    1950.0000    1950.0000    1950.0000      47.0348     129.1123     108.6089       0.2700      12.2436      -0.4593       0.9166       2.3919       0.2609       0.2665       0.2700      33.4702
    7676.5      12.2500    1745.8560    3461.0000      56.3321     399.0113      35.4628      49.2699       0.6544       0.5596       0.7133       0.4267    1950.0000    1950.0000    1950.0000      47.0348     129.1123     108.6089       0.2700      12.2436      -0.4593       0.9166       2.3919       0.2609       0.2665       0.2700      33.4702
    7677.0      12.2500    1745.8560    3461.0000      56.3321     399.0113      35.4628      49.2699       0.6544       0.5596       0.7133       0.4267    1950.0000    1950.0000    1950.0000      47.0348     129.1123     108.6089       0.2700      12.2436      -0.4593       0.9166       2.3919       0.2609       0.2665       0.2700      33.4702
    7677.5      12.2500    1745.8560    3461.0000      56.3321     399.0113      35.4628      49.2699       0.6544       0.5596       0.7133       0.4267    1950.0000    1950.0000    1950.0000      47.0348     129.1123     108.6089       0.2700      12.2436      -0.4593       0.9166       2.3919       0.2609       0.2665       0.2700      33.4702
    7678.0      12.2500    1745.8560    3461.0000      56.3321     399.0113      35.4628      49.2699       0.6544       0.5596       0.7133       0.4267    1950.0000    1950.0000    1950.0000      47.0348     129.1123     108.6089       0.2700      12.2436      -0.4593       0.9166       2.3919       0.2609       0.2665       0.2700      33.4702
    7678.5      12.2500    1745.8560    3461.0000      56.3321     399.0113      35.4628      49.2699       0.6544       0.5596       0.7133       0.4267    1950.0000    1950.0000    1950.0000      47.0348     129.1123     108.6089       0.2700      12.2436      -0.4593       0.9166       2.3919       0.2609       0.2665       0.2700      33.4702
    7679.0      12.2500    1745.8560    3461.0000      56.3321     399.0113      35.4628      49.2699       0.6544       0.5596       0.7133       0.4267    1950.0000    1950.0000    1950.0000      47.0348     129.1123     108.6089       0.2700      12.2436      -0.4593       0.9166       2.3919       0.2609       0.2665       0.2700      33.4702
    7679.5      12.2500    1745.8560    3461.0000      56.3321     399.0113      35.4628      49.2699       0.6544       0.5596       0.7133       0.4267    1950.0000    1950.0000    1950.0000      47.0348     129.1123     108.6089       0.2700      12.2436      -0.4593       0.9166       2.3919       0.2609       0.2665       0.2700      33.4702
    7680.0      12.2500    1745.8560    3461.0000      56.3321     399.0113      35.4628      49.2699       0.6544       0.5596       0.7133       0.4267    1950.0000    1950.0000    1950.0000      47.0348     129.1123     108.6089       0.2700      12.2436      -0.4593       0.9166       2.3919       0.2609       0.2665       0.2700      33.4702
    7680.5      12.2500    1745.8560    3461.0000      56.3321     399.0113      35.4628      49.2699       0.6544       0.5596       0.7133       0.4267    1950.0000    1950.0000    1950.0000      47.0348     129.1123     108.6089       0.2700      12.2436      -0.4593       0.9166       2.3919       0.2609       0.2665       0.2700      33.4702
    7681.0      12.2500    1745.8560    3461.0000      56.3321     399.0113      35.4628      49.2699       0.6544       0.5596       0.7133       0.4267    1950.0000    1950.0000    1950.0000      47.0348     129.1123     108.6089       0.2700      12.2436      -0.4593       0.9166       2.3919       0.2609       0.2665       0.2700      33.4702
    7681.5      12.2500    1745.8560    3461.0000      56.3321     399.0113      35.4628      49.2699       0.6544       0.5596       0.7133       0.4267    1950.0000    1950.0000    1950.0000      47.0348     129.1123     108.6089       0.2700      12.2436      -0.4593       0.9166       2.3919       0.2609       0.2665       0.2700      33.4702
    7682.0      12.2500    1745.8560    3461.0000      56.3321     399.0113      35.4628      49.2699       0.6544       0.5596       0.7133       0.4267    1950.0000    1950.0000    1950.0000      47.0348     129.1123     108.6089       0.2700      12.2436      -0.4593       0.9166       2.3919       0.2609       0.2665       0.2700      33.4702
    7682.5      12.2500    1745.8560    3461.0000      56.3321     399.0113      35.4628      49.2699       0.6544       0.5596       0.7133       0.4267    1950.0000    1950.0000    1950.0000      47.0348     129.1123     108.6089       0.2700      12.2436      -0.4593       0.9166       2.3919       0.2609       0.2665       0.2700      33.4702
    7683.0      12.2500    1745.8560    3461.0000      56.3321     399.0113      35.4628      49.2699       0.6544       0.5596       0.7133       0.4267    1950.0000    1950.0000    1950.0000      47.0348     129.1123     108.6089       0.2700      12.2436      -0.4593       0.9166       2.3919       0.2609       0.2665       0.2700      33.4702
