~VERSION INFORMATION
VERS.           2.0   :CWLS Log ASCII Standard - VERSION 2.0
WRAP.           NO    :One Line per depth step
PROD.  Schlumberger   :LAS Producer
PROG.  DLIS to ASCII 2.1                               :LAS Program name and version
CREA.                                                  :LAS Creation date {YYYY/MM/DD hh:mm}
SOURCE.     ait_DSI.dlis                               :DLIS File Name
FILE-ID.     HAIT  .018                                :File Identification Number
#--------------------------------------------------
~WELL INFORMATION
#MNEM.UNIT      DATA             DESCRIPTION
#---- ------ --------------   -----------------------------
STRT .F      7672.0          :START DEPTH     
STOP .F      13310.0         :STOP DEPTH     
STEP .F       0.5            :STEP     
NULL .          -999.25      :NULL VALUE
COMP .                                                 :COMPANY
CNTY .                                                 :COUNTY
STAT .                                                 :STATE
CTRY .                                                 :COUNTRY
UWI  .                                                 :UNIQUE WELL ID
DATE .        24-FEB-2000                              :LOG DATE {DD-MMM-YYYY}
SRVC .        Schlumberger                             :SERVICE COMPANY
LATI .DEG                                              :LATITUDE
LONG .DEG                                              :LONGITUDE
GDAT .                                                 :GeoDetic Datum
#-----------------------------------------------------------------------------
~PARAMETER INFORMATION
#MNEM.UNIT    VALUE                      DESCRIPTION
#---- -----   --------------------       ------------------------
TD   .F       13320.00000                :Total Depth
TNDTYP.        CMTD-B/A                  :Tension Device
TREF .LBF     1000.00000                 :Reference Tension of the Cable
DIFF .F          1.00000                 :Maximum Permitted Depth Difference
GGRD .DF/F       0.01000                 :Geothermal Gradient
GDEV .DEG        0.00000                 :Average Angular Deviation of Borehole from Normal
GTSE .        TEMP                       :Generalized Temperature Selection
SHT  .DEGF      67.99998                 :Surface Hole Temperature
BHS  .        OPEN                       :Borehole Status
MATR .        SAND                       :Rock Matrix for Neutron Porosity Corrections
GCSE .        HCAL                       :Generalized Caliper Selection
BHT  .DEGF     120.00000                 :Bottom Hole Temperature (used in calculations)
ETEM .DEGF      76.99998                 :HILT External Temperature
DHC  .        BS                         :Density Hole Correction
MDEN .G/C3       2.65000                 :Matrix Density
FD   .G/C3       1.00000                 :Fluid Density
SOCO .        YES                        :Standoff Correction Option
PTCO .        NO                         :Pressure/Temperature Correction Option
FSCO .        NO                         :Formation Salinity Correction Option
CCCO .        NO                         :Casing & Cement Thickness Correction Option
HSCO .        YES                        :Hole Size Correction Option
MWCO .        NO                         :Mud Weight Correction Option
MCCO .        NO                         :Mud Cake Correction Option
BSCO .        NO                         :Borehole Salinity Correction Option
SOCN .IN         0.12500                 :Standoff Distance
MCOR .        BARI                       :Mud Correction
BHFL .        WATER                      :Borehole Fluid Type
TIVD .F       11128.16992                :TVD of Tie-in Point
SPVD .F          0.00000                 :TVD of Starting Point
CD   .F          0.00000                 :Casing Shoe Depth
NLS  .                                   :Nominal Logging Speed
AMD  .DEG       96.63000                 :Azimuth of Maximum Deviation
STEM .DEGF      70.00000                 :Surface Temperature
TWS  .DEGF     100.00000                 :Temperature of Connate Water Sample
RW   .OHMM       1.00000                 :Resistivity of Connate Water
BPT  .                                   :Bubble Point Temperature
BSAL .PPM     62000.00000                :Borehole Salinity
MRT  .DEGF     120.00000                 :Maximum Recorded Temperature
RMFB .                                   :Resistivity of Mud Filtrate - BHT
RMB  .                                   :Resistivity of Mud - BHT
MCST .                                   :Mud Cake Sample Temperature
RMCS .                                   :Resistivity of Mud Cake Sample
MFST .                                   :Mud Filtrate Sample Temperature
RMFS .                                   :Resistivity of Mud Filtrate Sample
MST  .                                   :Mud Sample Temperature
RMS  .                                   :Resistivity of Mud Sample
DFPH .           8.40000                 :Drilling Fluid PH
DFL  .C3         0.00000                 :Drilling Fluid Loss
DFV  .S         71.00000                 :Drilling Fluid Viscosity
DFD  .LB/G      12.40000                 :Drilling Fluid Density
CWEI .LB/F      68.00000                 :Casing Weight
CSIZ .IN        13.37500                 :Current Casing Size
BS   .IN        12.25000                 :Bit Size
MHD  .DEG        6.79000                 :Maximum Hole Deviation
FLEV .F         10.00000                 :Fluid Level
CBLO .F       7966.00000                 :Casing Bottom of Logger
CBDR .F       7961.00000                 :Casing Bottom of Driller
CADT .                                   :Casing Depth To
CDF  .                                   :Casing Depth From
BSDT .                                   :Bit Size Depth To
BSDF .                                   :Bit Size Depth From
BLI  .F       13296.00000                :Bottom Log Interval
TDL  .F       13302.00000                :Total Depth - Logger
TDD  .F       13320.00000                :Total Depth - Driller
APD  .F         82.00000                 :Above Permanent Datum
EPD  .F          0.00000                 :Elevation of Permanent Datum
ELZ  .F         82.00000                 :Elevation of Log Zero
EDF  .F         82.00000                 :Elevation of Derrick Floor
EGL  .F       -3644.00000                :Elevation of Ground Level
EKB  .F         82.00000                 :Elevation of Kelly Bushing
LCC  .               440                 :Logging Company Code
MCSS .                                   :Mud Cake Sample Source
MFSS .                                   :Mud Filtrate Sample Source
MSS  .                                   :Mud Sample Source
TCS  .        18 00                      :Time Circulation Stopped
DCS  .                                   :Date Circulation Stopped
DFT  .        Oil Based Mud              :Drilling Fluid Type
CASG .                                   :Casing Grade
ENGI .                                   :Engineer's Name
TLAB .        11 00                      :Time Logger At Bottom
DLAB .                                   :Date Logger At Bottom
DATE .                                   :Date as Month-Day-Year
DMF  .        RKB                        :Drilling Measured From
LMF  .        RKB                        :Log Measured From
PDAT .        MSL                        :Permanent Datum
LCL  .F            23900                 :Logging Cable Length
RUN  .          1                        :RUN NUMBER
#-----------------------------------------------------------------------------
~CURVE INFORMATION
#MNEM.UNIT   API CODE                                  DESCRIPTION
#---- -----  --------                                  -----------------------
DEPT .F                                                :DEPTH (BOREHOLE) {F10.1}
BS   .IN                                               :Bit Size {F13.4}
CS   .F/HR                                             :Cable Speed {F13.4}
TENS .LBF                                              :Cable Tension {F13.4}
DTCO .US/F                                             :Delta-T Compressional {F13.4}
DTSM .US/F                                             :Delta-T Shear {F13.4}
GR   .GAPI                                             :Calibrated Gamma-Ray SC {F13.4}
ECGR .GAPI                                             :Gamma-Ray {F13.4}
NPHI .CFCF                                             :Thermal Neutron Porosity (Ratio Method, Sandstone matrix) {F13.4}
NPL  .CFCF                                             :Neutron Porosity Limestone {F13.4}
TNPH .CFCF                                             :Thermal Neutron Porosity (Sandstone matrix with EC corrections) {F13.4}
GDEV .DEG                                              :HGNS Deviation {F13.4}
AHO10.OHMM                                             :Array Induction One Foot Resistivity A10 {F13.4}
AHO20.OHMM                                             :Array Induction One Foot Resistivity A20 {F13.4}
AHF30.OHMM                                             :Array Induction Four Foot Resistivity A30 {F13.4}
AHF60.OHMM                                             :Array Induction Four Foot Resistivity A60 {F13.4}
AHF90.OHMM                                             :Array Induction Four Foot Resistivity A90 {F13.4}
AHTCA.DEGF                                             :Array Induction Array Temperature Calibrated {F13.4}
RXOI .OHMM                                             :MCFL Very High Resolution Invaded Zone Resistivity {F13.4}
HCAL .IN                                               :HRCC Cal. caliper SC {F13.4}
HDRA .G/C3                                             :HRDD Density Correction {F13.4}
PEFZ .                                                 :HRDD Standard Resolution Formation Photoelectric Factor {F13.4}
RHOZ .G/C3                                             :HRDD Standard Resolution Formation Density {F13.4}
HMIN .OHMM                                             :MCFL Micro Inverse Resistivity {F13.4}
HMNO .OHMM                                             :MCFL Micro Normal Resistivity {F13.4}
RXOZ .OHMM                                             :MCFL Standard Resolution Invaded Zone Resistivity {F13.4}
HGR  .GAPI                                             :Hires Calibrated Gamma-Ray SC {F13.4}
#-----------------------------------------------------------------------------
# 
#     DEPT        BS           CS           TENS         DTCO         DTSM         GR           ECGR         NPHI         NPL          TNPH         GDEV        AHO10        AHO20        AHF30        AHF60        AHF90        AHTCA         RXOI         HCAL         HDRA         PEFZ         RHOZ         HMIN         HMNO         RXOZ         HGR
#
~A  
# ...
   12168.5      12.2500    1762.6606    4729.0000     118.1050     282.5599      80.0612     109.8447       0.4205       0.3640       0.4304       6.3175       0.8764       0.8166       0.8539       0.8338       0.8010     134.0981       0.2700      11.9129       0.0008       1.1593       2.2548       1.6389       0.7183       0.2699      78.6901
   12169.0      12.2500    1761.3760    4786.0000     117.8092     278.7773      79.4879     108.9644       0.4606       0.3975       0.4183       6.3267       0.8944       0.8454       0.8634       0.8428       0.8098     134.0981    4158.4795      11.8906       0.0004       1.3240       2.2928       1.1207       0.6168       0.3277      81.1492
   12169.5      12.2500    1763.5900    4764.0000     118.4664     275.5356      80.7760     110.7619       0.4649       0.4011       0.4446       6.3350       0.9104       0.8640       0.8781       0.8602       0.8260     134.0801    3670.0100      11.8980      -0.0001       1.5263       2.3091       2.2226       1.8793       0.3529      78.1955
   12170.0      12.2500    1758.3885    4785.0000     118.2070     272.1441      78.9024     108.2548       0.4766       0.4109       0.4528       6.3395       0.9100       0.8860       0.8963       0.8800       0.8445     134.0633       0.1350      11.9129       0.0028       1.7348       2.3069       0.1687       0.1796       0.1530      82.5543
   12170.5      12.2500    1760.4175    4826.0000     118.2824     268.7423      79.6953     109.3738       0.4702       0.4055       0.4584       6.3532       0.9433       0.9199       0.9164       0.9009       0.8640     134.1116       0.2700      11.9203       0.0058       1.9546       2.2885       0.9612       0.4530       0.1481      75.5284
   12171.0      12.2500    1757.5607    4813.0000     118.0645     265.7513      79.4611     109.1926       0.4784       0.4123       0.4473       6.3637       0.9809       0.9336       0.9360       0.9216       0.8832     134.0958    4683.0283      11.9538       0.0073       2.1533       2.2715       0.9849       0.7155       0.3278      80.9012
   12171.5      12.2500    1760.6727    4824.0000     117.9273     259.6895      81.3077     111.5867       0.4527       0.3909       0.4504       6.3499       1.0111       0.9757       0.9547       0.9409       0.9011     134.1123    4904.5010      11.9203       0.0157       2.2795       2.2789      31.5982      46.4301       0.4172      81.8518
   12172.0      12.2500    1759.1040    4754.0000     115.6308     264.8078      81.3330     111.6214       0.4324       0.3739       0.4176       6.3281       1.0189       0.9791       0.9717       0.9590       0.9180     134.0968       0.2700      11.9203       0.0258       2.3311       2.3055       1.4528       0.6440       0.2416      81.0820
   12172.5      12.2500    1761.2351    4744.0000     115.7794     265.4018      79.2252     108.8219       0.4480       0.3869       0.4035       6.3182       1.0107       0.9786       0.9802       0.9694       0.9277     134.0975    3644.7642      11.9426       0.0313       2.3613       2.3228       1.8698       0.8072       0.2295      81.3757
   12173.0      12.2500    1759.7468    4774.0000     117.6940     266.0333      78.9586     108.3164       0.4633       0.3998       0.4234       6.3246       1.0145       0.9924       0.9879       0.9741       0.9322     134.0968    3271.4917      11.9092       0.0291       2.3859       2.3201       1.5604       1.1392       1.1468      75.5284
   12173.5      12.2500    1757.5466    4731.0000     117.8655     269.6504      78.0455     106.9718       0.4848       0.4177       0.4382       6.3221       1.0301       0.9996       0.9940       0.9777       0.9358     134.0961    1655.5082      11.8869       0.0316       2.3139       2.3253      36.2822      51.3628    1807.2837      80.7839
   12174.0      12.2500    1755.5314    4716.0000     117.8830     273.3792      83.7117     114.6887       0.4461       0.3854       0.4534       6.3056       1.0421       1.0317       0.9912       0.9739       0.9327     134.0965    5000.0366      11.8758       0.0392       2.1172       2.3457       0.7820       0.5625       0.2295      78.3388
   12174.5      12.2500    1757.1521    4744.0000     117.8810     270.1904      88.5721     121.2430       0.4741       0.4088       0.4242       6.3136       1.0188       1.0052       0.9867       0.9678       0.9274     134.0958       0.0675      11.8535       0.0316       1.8946       2.3401       0.5799       0.3266       0.1836      92.8444
   12175.0      12.2500    1754.3309    4751.0000     118.0282     271.7451      88.5461     121.1377       0.4742       0.4089       0.4443       6.3372       0.9800       0.9498       0.9820       0.9627       0.9229     134.0931    3833.7485      11.8386       0.0190       1.7764       2.3220       0.7420       0.4698       0.1996      95.8273
   12175.5      12.2500    1756.2622    4783.0000     117.5295     272.1242      88.3552     120.9462       0.5004       0.4307       0.4541       6.3337       0.9875       0.9601       0.9794       0.9571       0.9184     134.0777    5000.0366      11.8535       0.0067       1.8322       2.3027       0.4126       0.3601       0.1765      78.2581
   12176.0      12.2500    1758.4694    4698.0000     116.3890     271.3851      83.0858     113.7657       0.4851       0.4180       0.4925       6.3136       1.0129       0.9881       0.9799       0.9563       0.9181     134.0972       0.0900      11.8609       0.0051       2.0387       2.2937       0.1633       0.1714       0.1311      92.1570
   12176.5      12.2500    1758.0718    4789.0000     116.6022     268.1931      81.9159     112.2284       0.4915       0.4234       0.4914       6.3124       1.0112       0.9834       0.9814       0.9567       0.9189     134.0978       0.1350      11.8758       0.0046       2.3611       2.2806       0.8902       0.4445       0.1434      79.0414
   12177.0      12.2500    1758.8424    4745.0000     116.3983     264.4534      75.1525     103.0951       0.4970       0.4279       0.4785       6.3256       1.0077       0.9914       0.9838       0.9584       0.9209     134.1112    4117.2349      11.9092       0.0108       2.7070       2.2740      68.6735      97.7747       0.6556      74.7545
   12177.5      12.2500    1760.9362    4736.0000     115.2594     260.9360      73.0622     100.4853       0.5015       0.4317       0.4584       6.3248       1.0046       0.9784       0.9894       0.9639       0.9265     134.0991    4183.2925      11.9761       0.0151       2.9461       2.2769      72.4927     103.8268    4170.9019      71.6642
   12178.0      12.2500    1762.8452    4736.0000     115.0858     258.4986      71.2134      97.6495       0.4729       0.4077       0.4518       6.3180       1.0125       0.9793       0.9943       0.9706       0.9331     134.1152    4243.2207      11.8980       0.0162       2.9814       2.2908      60.2220      85.9404     273.3620      72.4710
   12178.5      12.2500    1761.8357    4774.0000     114.3800     257.7141      72.8754      99.7994       0.4644       0.4006       0.4142       6.3137       1.0182       0.9855       1.0004       0.9769       0.9393     134.0998      35.1996      11.8646       0.0103       2.8170       2.3120      34.6607      43.7418       1.1426      69.2051
   12179.0      12.2500    1760.1837    4795.0000     113.0733     254.9163      76.2538     104.4110       0.4048       0.3508       0.4105       6.3107       1.0211       0.9921       1.0100       0.9854       0.9474     134.1340    1442.5704      11.8609       0.0077       2.5869       2.3457       0.8134       0.4931       0.2085      76.3848
   12179.5      12.2500    1758.5452    4805.0000     111.5443     249.6235      80.8206     110.9183       0.3968       0.3441       0.3669       6.3013       1.0362       1.0078       1.0246       0.9961       0.9572     134.1542       0.0540      11.9203       0.0055       2.4431       2.3758       0.3865       0.2683       0.1530      82.9056
