~Version Information Block
VERS .                 2.00:  CWLS LOG ASCII STANDARD - VERSION 2.00
WRAP .                   NO:  One line per depth step
~Well Information Block
#MNEM.UNIT        Data Type   Information
#---------- ----------------  -----------
STRT .FT            4550.00:  START DEPTH
STOP .FT            5250.00:  STOP DEPTH
STEP .FT               0.50:  STEP
NULL .              -999.25:  NULL VALUE
COMP .                     :  COMPANY
WELL .                    H:  WELL
FLD  .                     :  FIELD
LOC  .                     :  LOCATION
CTRY .                     :  COUNTRY
STAT .                     :  STATE
CNTY .                     :  COUNTY
SRVC .                     :  SERVICE COMPANY
DATE .                     :  DATE
API  .                     :  API NUMBER
UWI  .                     :  UNIQUE WELL ID
~Curve Information Block
#MNEM.UNIT         API CODE   Curve Description
#---------- ----------------  -----------------
DEPTH.FT                   :  
BS   .IN                   :  8.5
CALI .IN                   :  Caliper
DDEN .G/C3                 :  HDRA_1 Depth Shifted (Shift Pairs set)
DEN  .G/C3                 :  Bulk density
DT   .US/F                 :  Compressional sonic log
GR   .GAPI                 :  Gamma Ray
NPHI .V/V                  :  Neutron porosity log
PE   .B/E                   :  PEFZ_1 Depth Shifted (Shift Pairs set)
RDEEP.OHMM                 :  Deep resistivity log
RMED .OHMM                 :  Medium resistivity log
RSHAL.OHMM                 :  Micro-resistivity log
~Parameter Information Block
#MNEM.UNIT            Value   Description
#---------- ----------------  -----------
PROJECT.                 UB:  
SET  .                   UB:  
~Other Information Block
# 
~A       DEPTH             BS           CALI           DDEN            DEN             DT             GR           NPHI            PEF          RDEEP           RMED          RSHAL 
# ...
       4820.00         8.5000        10.1472         0.0684         2.4769        67.3093        31.1366       0.082800         1.8773        30.1476        17.3715         6.4153
       4820.50         8.5000        10.0683         0.0584         2.4563        68.4094        36.4105       0.087100         1.8820        25.6392        14.1146         6.4824
       4821.00         8.5000        10.1472         0.0417         2.4426        68.0578        38.6175       0.090500         1.8744        22.1451        11.6038         7.4303
       4821.50         8.5000        10.0419         0.0273         2.4391        69.0091        37.0507       0.087000         1.8449        24.5473        12.3003         7.7394
       4822.00         8.5000        10.0119         0.0162         2.4465        68.8574        31.7768       0.082600         1.8073        26.8424        13.2066         8.1648
       4822.50         8.5000        10.0344         0.0072         2.4549        68.2281        27.4926       0.076700         1.7831        26.9536        13.4719         8.7999
       4823.00         8.5000        10.0119        -0.0003         2.4572        68.4478        24.1472       0.074500         1.7903        29.6131        15.0021        10.5426
       4823.50         8.5000        10.0457        -0.0028         2.4678        68.6021        23.5982       0.074000         1.8196        32.0897        16.9583        11.8536
       4824.00         8.5000        10.0683        -0.0026         2.4628        69.2914        30.2787       0.082100         1.8540        22.4903        12.2812         9.0622
       4824.50         8.5000        10.1021        -0.0037         2.4406        71.3166        38.9357       0.096700         1.8895        13.2859         7.9893         6.0498
       4825.00         8.5000        10.1134        -0.0061         2.4103        73.3591        39.9982       0.121200         1.9143        10.2866         6.6692         4.9648
       4825.50         8.5000        10.1472        -0.0092         2.3811        73.6661        36.7525       0.133500         1.9194        10.1061         7.3219         4.6021
       4826.00         8.5000        10.1697        -0.0105         2.3721        73.7553        35.4358       0.136700         1.9065        10.0791         7.3841         5.0425
       4826.50         8.5000        10.1923        -0.0092         2.3786        73.1341        36.5427       0.125600         1.8957        10.9280         8.1082         5.1903
       4827.00         8.5000        10.2148        -0.0057         2.3942        73.2190        40.5080       0.119400         1.8910        12.4235         9.0156         5.0484
       4827.50         8.5000        10.2148         0.0057         2.4261        71.7324        42.1255       0.114200         1.8938        10.5905         7.0477         4.9579
       4828.00         8.5000        10.2148         0.0248         2.4692        69.7860        46.7365       0.103700         1.8960        15.8564         9.7306         5.8587
       4828.50         8.5000        10.2825         0.0463         2.5102        67.8773        46.6067       0.085100         1.8998        20.2463        12.2066         8.0350
       4829.00         8.5000        10.2900         0.0573         2.5195        66.2642        41.1480       0.070000         1.9010        30.8769        17.3262        10.3573
       4829.50         8.5000        10.2825         0.0588         2.5250        65.2904        44.1339       0.065200         1.9238        35.2771        20.6236         8.9561
       4830.00         8.5000        10.3163         0.0581         2.5674        67.1062        64.2566       0.079600         2.0002        52.9233        30.1042        11.5892
       4830.50         8.5000        10.3501         0.0519         2.6237        68.3181        89.8381       0.119100         2.1153        83.1679        51.5018        16.2196
       4831.00         8.5000        10.3501         0.0361         2.6578        69.2303       125.4098       0.180800         2.2230        83.9585        62.7165        71.5253
       4831.50         8.5000        10.3389         0.0150         2.6476        70.6864       140.8589       0.235600         2.2919        77.3781        68.0123        74.3059
       4832.00         8.5000        10.3276         0.0016         2.6257        70.7034       155.5000       0.251500         2.3189        75.8293        71.6598        74.5709
       4832.50         8.5000        10.3050        -0.0009         2.6126        69.7323       152.7737       0.247400         2.3026        76.3399        74.5309        60.8715
       4833.00         8.5000        10.2938        -0.0003         2.5992        69.1603       147.2951       0.248600         2.2829        82.1802        87.8932        24.4904
       4833.50         8.5000        10.2599        -0.0019         2.5903        68.6068       139.2750       0.219400         2.3263        80.6907        96.8175        23.8611
       4834.00         8.5000        10.2599        -0.0041         2.5885        68.3028       135.3803       0.194400         2.4313        65.1256        83.4577        36.2938
       4834.50         8.5000        10.2261        -0.0030         2.5712        68.9502       136.8343       0.191000         2.5249        63.8433        82.6074        72.4146
       4835.00         8.5000        10.1810         0.0195         2.5861        68.7764       132.8098       0.193000         2.5473        66.6839        88.7430        78.8312
       4835.50         8.5000        10.2073         0.0592         2.6143        68.3925       119.5480       0.162300         2.5114        75.3310       104.4014        58.4065
       4836.00         8.5000        10.6320         0.0881         2.6528        67.0767       104.9069       0.132600         2.4647        86.0697       124.6862        43.4228
       4836.50         8.5000        10.9365         0.0793         2.6591        67.0086       101.9004       0.123600         2.4339        69.8078       102.6803        39.9852
       4837.00         8.5000        10.0795         0.0433         2.6463        67.1903       109.5797       0.149700         2.4408        65.0975       101.8351        57.7976
       4837.50         8.5000        10.0119         0.0128         2.6322        67.9103       126.1682       0.183000         2.4735        72.5622       122.4640        70.2167
       4838.00         8.5000         9.9555         0.0013         2.6162        67.6548       135.9256       0.206700         2.4729        64.7618        91.8238        55.3132
       4838.50         8.5000         9.9217         0.0009         2.5888        67.6352       120.7362       0.207200         2.4222        61.9680        85.0755        55.5711
       4839.00         8.5000         9.7751         0.0031         2.5752        68.8757        92.1749       0.185900         2.3433       106.4980       139.4828         8.1902
       4839.50         8.5000         9.7525         0.0038         2.5718        68.9201        76.5788       0.169600         2.2810        67.2606        92.4320         8.3875
       4840.00         8.5000         9.6736         0.0023         2.5852        69.5306        81.7717       0.172800         2.2607        64.1081        85.0658         8.2082
       4840.50         8.5000         9.6398         0.0004         2.6004        69.4056       105.5295       0.179600         2.2609        65.1929        84.5717        58.7545
       4841.00         8.5000         9.5947        -0.0004         2.6066        67.1868       120.7362       0.192700         2.2620        65.7095        84.6843        81.2655
       4841.50         8.5000         9.5609         0.0001         2.6096        66.3071       127.6168       0.168800         2.2296        84.5453       102.2299        93.3039
       4842.00         8.5000         9.5233        -0.0004         2.6050        66.0218       119.7922       0.148700         2.2070        75.0794        77.6683       101.0867
