~Version Information Block
VERS .                 2.00:  CWLS LOG ASCII STANDARD - VERSION 2.00
WRAP .                   NO:  One line per depth step
~Well Information Block
#MNEM.UNIT        Data Type   Information
#---------- ----------------  -----------
STRT .FT            4550.00:  START DEPTH
STOP .FT            5250.00:  STOP DEPTH
STEP .FT               0.50:  STEP
NULL .              -999.25:  NULL VALUE
COMP .                     :  COMPANY
WELL .                    H:  WELL
FLD  .                     :  FIELD
LOC  .                     :  LOCATION
CTRY .                     :  COUNTRY
STAT .                     :  STATE
CNTY .                     :  COUNTY
SRVC .                     :  SERVICE COMPANY
DATE .                     :  DATE
API  .                     :  API NUMBER
UWI  .                     :  UNIQUE WELL ID
~Curve Information Block
#MNEM.UNIT         API CODE   Curve Description
#---------- ----------------  -----------------
DEPTH.FT                   :  
BS   .IN                   :  8.5
CALI .IN                   :  Caliper
DDEN .G/C3                 :  HDRA_1 Depth Shifted (Shift Pairs set)
DEN  .G/C3                 :  Bulk density
DT   .US/F                 :  Compressional sonic log
GR   .GAPI                 :  Gamma Ray
NPHI .V/V                  :  Neutron porosity log
PE   .B/E                   :  PEFZ_1 Depth Shifted (Shift Pairs set)
RDEEP.OHMM                 :  Deep resistivity log
RMED .OHMM                 :  Medium resistivity log
RSHAL.OHMM                 :  Micro-resistivity log
~Parameter Information Block
#MNEM.UNIT            Value   Description
#---------- ----------------  -----------
PROJECT.                 UB:  
SET  .                   UB:  
~Other Information Block
# 
~A       DEPTH             BS           CALI           DDEN            DEN             DT             GR           NPHI            PEF          RDEEP           RMED          RSHAL 
# ...
       4730.00         8.5000         9.9555         0.0011         2.4328        72.6666        53.3082       0.143600         1.9562        52.5543        19.0158         8.4702
       4730.50         8.5000         9.9442         0.0035         2.4363        72.3855        51.0108       0.126200         1.9350        73.2135        24.4555         8.9763
       4731.00         8.5000         9.9555         0.0047         2.4313        72.6894        46.3324       0.113200         1.9054        70.4366        22.7520        10.3931
       4731.50         8.5000         9.9217         0.0038         2.4283        73.3525        46.4886       0.113300         1.8917        61.9571        20.0327         9.6830
       4732.00         8.5000         9.9893         0.0014         2.4243        74.9109        44.0567       0.122300         1.8919        57.8604        18.6473        10.3996
       4732.50         8.5000         9.8916        -0.0006         2.4275        74.1689        47.3071       0.134400         1.9037        56.5537        17.8226         9.8033
       4733.00         8.5000         9.8390        -0.0014         2.4363        72.8669        47.4104       0.136700         1.9090        55.7199        17.2659         8.8427
       4733.50         8.5000         9.7525        -0.0026         2.4379        73.1993        53.3576       0.134300         1.9259        69.4577        19.6719         8.5109
       4734.00         8.5000         9.7074        -0.0042         2.4416        72.0856        56.6032       0.131400         1.9596        73.0978        20.0763         8.9198
       4734.50         8.5000         9.6736        -0.0056         2.4433        71.2407        58.2809       0.132200         1.9879        71.7958        19.3295        10.0990
       4735.00         8.5000         9.6172        -0.0057         2.4477        70.4691        50.3616       0.133400         1.9869        78.7838        20.9898        10.8820
       4735.50         8.5000         9.5909        -0.0043         2.4532        68.6699        42.1827       0.123300         1.9506        92.0665        24.1203        12.7597
       4736.00         8.5000         9.5609        -0.0026         2.4556        67.7432        37.9085       0.104300         1.9098        91.5471        23.7278        13.9433
       4736.50         8.5000         9.5007        -0.0018         2.4581        66.7225        36.2208       0.091400         1.8876        87.0159        23.0135        14.7849
       4737.00         8.5000         9.4932        -0.0033         2.4557        66.6452        34.1380       0.081900         1.8881        85.9685        23.2309        13.6396
       4737.50         8.5000         9.4255        -0.0053         2.4576        67.3830        31.0222       0.080900         1.8946        92.4923        24.7878        13.7718
       4738.00         8.5000         9.3917        -0.0054         2.4655        68.5883        29.8538       0.079000         1.8880        97.4120        26.1916        14.0942
       4738.50         8.5000         9.3804        -0.0036         2.4706        69.5578        32.0454       0.077700         1.8767        93.9801        26.2273        13.9464
       4739.00         8.5000         9.3579        -0.0020         2.4662        71.2276        37.1086       0.077700         1.8752        73.0166        21.6311        11.2517
       4739.50         8.5000         9.3429        -0.0028         2.4487        72.6321        41.9120       0.085400         1.8875        58.6266        19.1138         9.5449
       4740.00         8.5000         9.3353        -0.0053         2.4332        73.7085        44.6594       0.096600         1.9047        64.0331        22.3624         9.7949
       4740.50         8.5000         9.3128        -0.0074         2.4248        74.4068        44.2699       0.104700         1.9146        65.7692        24.4202        11.3191
       4741.00         8.5000         9.2790        -0.0074         2.4280        73.6867        43.2234       0.104100         1.9130        50.2779        20.5561        10.4825
       4741.50         8.5000         9.2451        -0.0054         2.4373        73.0316        42.7041       0.107700         1.9034        47.3750        19.8612         9.3230
       4742.00         8.5000         9.2376        -0.0031         2.4503        73.0889        44.0023       0.109700         1.9039        48.4266        20.0382         8.5891
       4742.50         8.5000         9.2226        -0.0025         2.4625        72.6219        54.7856       0.111500         1.9262        51.4429        20.8473         9.4075
       4743.00         8.5000         9.2113        -0.0033         2.4752        71.6806        69.1961       0.115900         1.9575        43.6802        18.3748        10.5036
       4743.50         8.5000         9.2000        -0.0050         2.4779        71.6165        79.4522       0.121000         1.9722        57.9839        22.1774        11.6982
       4744.00         8.5000         9.1775        -0.0062         2.4736        70.8241        70.8249       0.121600         1.9674        65.3926        22.6269        12.9108
       4744.50         8.5000         9.1211        -0.0066         2.4605        70.3615        60.5509       0.115500         1.9649        72.8952        22.8940        14.0988
       4745.00         8.5000         9.1098        -0.0053         2.4530        70.6995        50.3564       0.108100         1.9723        70.3632        19.5391        13.0182
       4745.50         8.5000         9.0422        -0.0029         2.4512        71.0644        47.9519       0.108000         1.9660        63.7863        16.4984        11.6046
       4746.00         8.5000         8.9745        -0.0013         2.4495        71.4380        43.5558       0.100300         1.9458        68.8112        16.1545        10.0985
       4746.50         8.5000         8.9294        -0.0010         2.4443        71.4160        40.0606       0.097200         1.9261        64.6870        13.8647         9.3388
       4747.00         8.5000         8.8317        -0.0015         2.4399        71.3385        39.1485       0.099600         1.9127        62.7125        12.5208         8.4364
       4747.50         8.5000         8.7490        -0.0021         2.4366        70.7167        34.5993       0.104600         1.9000        64.1389        11.8563         7.6841
       4748.00         8.5000         8.7039        -0.0030         2.4303        70.7237        33.6189       0.108500         1.8879        67.4974        11.7247         7.3960
       4748.50         8.5000         8.6926        -0.0043         2.4207        71.2769        30.0654       0.106300         1.8862        66.4481        10.8183         6.9995
       4749.00         8.5000         8.6701        -0.0057         2.4107        72.0207        30.4603       0.106000         1.8856        65.5290         9.9620         6.4168
       4749.50         8.5000         8.6588        -0.0064         2.4071        73.8336        30.2007       0.108500         1.8733        67.1256         9.3845         5.9512
       4750.00         8.5000         8.6588        -0.0063         2.3999        75.5562        28.8208       0.114600         1.8567        68.1199         8.9402         5.5754
       4750.50         8.5000         8.6588        -0.0054         2.3960        75.4157        28.5963       0.128300         1.8445        69.6102         8.7038         5.2478
       4751.00         8.5000         8.6588        -0.0042         2.3897        75.4236        25.8829       0.133400         1.8396        73.8767         8.5763         5.0968
       4751.50         8.5000         8.6588        -0.0029         2.3904        77.6366        26.9011       0.132200         1.8331        76.2933         8.3221         5.0168
       4752.00         8.5000         8.6588        -0.0016         2.3900        79.1562        28.4239       0.125500         1.8259        76.3947         8.0091         4.8849
