~Version Information Block
VERS .                 2.00:  CWLS LOG ASCII STANDARD - VERSION 2.00
WRAP .                   NO:  One line per depth step
~Well Information Block
#MNEM.UNIT        Data Type   Information
#---------- ----------------  -----------
STRT .FT            4550.00:  START DEPTH
STOP .FT            5250.00:  STOP DEPTH
STEP .FT               0.50:  STEP
NULL .              -999.25:  NULL VALUE
COMP .                     :  COMPANY
WELL .                    H:  WELL
FLD  .                     :  FIELD
LOC  .                     :  LOCATION
CTRY .                     :  COUNTRY
STAT .                     :  STATE
CNTY .                     :  COUNTY
SRVC .                     :  SERVICE COMPANY
DATE .                     :  DATE
API  .                     :  API NUMBER
UWI  .                     :  UNIQUE WELL ID
~Curve Information Block
#MNEM.UNIT         API CODE   Curve Description
#---------- ----------------  -----------------
DEPTH.FT                   :  
BS   .IN                   :  8.5
CALI .IN                   :  Caliper
DDEN .G/C3                 :  HDRA_1 Depth Shifted (Shift Pairs set)
DEN  .G/C3                 :  Bulk density
DT   .US/F                 :  Compressional sonic log
GR   .GAPI                 :  Gamma Ray
NPHI .V/V                  :  Neutron porosity log
PE   .B/E                   :  PEFZ_1 Depth Shifted (Shift Pairs set)
RDEEP.OHMM                 :  Deep resistivity log
RMED .OHMM                 :  Medium resistivity log
RSHAL.OHMM                 :  Micro-resistivity log
~Parameter Information Block
#MNEM.UNIT            Value   Description
#---------- ----------------  -----------
PROJECT.                 UB:  
SET  .                   UB:  
~Other Information Block
# 
~A       DEPTH             BS           CALI           DDEN            DEN             DT             GR           NPHI            PEF          RDEEP           RMED          RSHAL 
# ...
       5090.00         8.5000        12.3722         0.2077         2.3333        69.6975        66.0120       0.066700         1.8884        42.5932        72.8803         1.2291
       5090.50         8.5000        11.6055         0.2334         2.3666        69.5048        69.5699       0.088800         1.8831        30.5808        53.1853         1.7042
       5091.00         8.5000        11.4890         0.2339         2.3953        71.9445        69.2522       0.106400         1.8745        24.6969        34.3118         2.3085
       5091.50         8.5000        11.4927         0.2366         2.4296        71.7841        59.4261       0.109800         1.8727        25.1013        29.8141         3.0115
       5092.00         8.5000        11.4439         0.2579         2.4271        71.6291        61.9227       0.108800         1.8645        28.4424        30.5286         3.9308
       5092.50         8.5000        11.2522         0.2999         2.4036        71.4003        63.3327       0.113400         1.8274        19.7617        21.7733         4.8053
       5093.00         8.5000        11.9513         0.3458         2.3627        70.5622        57.6841       0.089300         1.7606        30.2364        32.8606         3.7495
       5093.50         8.5000        12.0340         0.3887         2.4099        69.2445        46.7494       0.072300         1.6848        30.7397        32.3096         3.5593
       5094.00         8.5000        12.0302         0.4091         2.4493        69.1433        39.9012       0.068200         1.6526        27.6905        30.6034         3.6200
       5094.50         8.5000        11.3725         0.3903         2.4485        69.0271        37.3117       0.080600         1.6815        33.6512        39.5605         3.4899
       5095.00         8.5000        11.6356         0.3551         2.4210        69.8140        37.2292       0.081600         1.7309        34.9597        40.0670         3.1919
       5095.50         8.5000        11.5980         0.3320         2.3989        69.4834        33.4527       0.074800         1.7534        32.8916        33.2166         3.0664
       5096.00         8.5000        11.5830         0.3319         2.4029        69.9082        33.1549       0.072500         1.7388        30.6890        30.6129         2.9597
       5096.50         8.5000        11.6807         0.3378         2.4078        69.9192        33.9302       0.075300         1.7259        23.9060        24.1548         1.6012
       5097.00         8.5000        11.6468         0.3259         2.4195        71.1114        40.1789       0.082600         1.7506        20.1668        19.9495         1.1959
       5097.50         8.5000        11.2898         0.2929         2.4419        71.4276        45.8364       0.094800         1.8118        19.8378        19.5432         1.2757
       5098.00         8.5000        10.9214         0.2458         2.4521        72.5754        47.7472       0.107200         1.8784        19.3932        19.1789         2.0196
       5098.50         8.5000        11.2296         0.1970         2.4517        73.2508        50.8240       0.117200         1.9230        19.1357        18.2709         3.0469
       5099.00         8.5000        11.1733         0.1606         2.4694        73.3088        52.2136       0.121500         1.9489        19.1555        17.3677         3.4418
       5099.50         8.5000        10.8162         0.1373         2.4832        74.0846        60.4294       0.126600         1.9748        22.9935        20.4545         5.1055
       5100.00         8.5000        10.4103         0.1245         2.4931        73.7480        66.0868       0.132100         2.0103        22.3053        19.4081         6.1795
       5100.50         8.5000        10.3952         0.1202         2.4843        74.8918        66.3402       0.130900         2.0416        16.0685        14.0260         5.7936
       5101.00         8.5000        10.5982         0.1184         2.4666        75.1886        65.7607       0.120200         2.0533        17.0313        14.4671         4.8246
       5101.50         8.5000        10.1697         0.1150         2.4640        75.0669        61.3936       0.123000         2.0392        17.7948        14.8142         5.4099
       5102.00         8.5000        10.1472         0.1055         2.4589        75.7949        61.4465       0.130400         2.0049        14.5853        12.5535         5.7223
       5102.50         8.5000        10.2524         0.0923         2.4594        74.6527        56.4869       0.139700         1.9677        14.5901        12.4013         5.5556
       5103.00         8.5000        10.1021         0.0836         2.4582        74.9545        54.9071       0.139500         1.9410        14.4806        12.2600         4.9807
       5103.50         8.5000        10.0720         0.0820         2.4533        74.7112        48.0040       0.128400         1.9286        14.2864        12.0473         4.8453
       5104.00         8.5000        10.2261         0.0844         2.4608        74.6748        45.1981       0.124000         1.9220        14.4345        12.0969         5.0091
       5104.50         8.5000        10.0570         0.0799         2.4578        74.9746        39.4331       0.114900         1.9135        16.0865        13.2276         5.2649
       5105.00         8.5000        10.0119         0.0596         2.4518        74.9506        41.4706       0.119200         1.8976        17.3853        14.1348         5.3333
       5105.50         8.5000         9.9292         0.0327         2.4490        75.4294        43.7530       0.114200         1.8768        17.5366        14.2951         5.3162
       5106.00         8.5000         9.8540         0.0118         2.4488        74.7587        47.9369       0.117400         1.8604        18.0963        14.5217         5.5170
       5106.50         8.5000         9.8390         0.0019         2.4500        74.3739        50.0234       0.112300         1.8600        17.9088        14.4705         5.6408
       5107.00         8.5000         9.8239        -0.0010         2.4436        73.9674        48.5364       0.113800         1.8761        18.3361        14.6161         6.0745
       5107.50         8.5000         9.8540        -0.0030         2.4380        73.8082        47.1385       0.110100         1.8831        18.3891        14.6556         6.2157
       5108.00         8.5000         9.7939        -0.0030         2.4390        74.0136        43.6561       0.109300         1.8648        18.8383        15.1273         6.1806
       5108.50         8.5000         9.8014         0.0009         2.4437        74.1996        41.7301       0.106100         1.8365        17.5299        14.0344         5.7248
       5109.00         8.5000         9.8691         0.0105         2.4477        73.7375        38.4871       0.104900         1.8315        17.8106        14.3021         5.5833
       5109.50         8.5000         9.7939         0.0249         2.4578        74.2605        36.8049       0.101100         1.8507        17.6734        14.1916         5.7181
       5110.00         8.5000         9.8371         0.0372         2.4714        74.0670        37.5622       0.099500         1.8677        17.3584        13.9912         5.6790
       5110.50         8.5000         9.7788         0.0352         2.4675        73.9802        39.6072       0.101500         1.8613        22.5994        17.5141         5.9259
       5111.00         8.5000         9.7413         0.0200         2.4648        74.3279        45.0701       0.102800         1.8497        21.8843        17.0186         5.9514
       5111.50         8.5000         9.7262         0.0039         2.4551        73.7300        46.8635       0.110900         1.8517        17.1728        13.6873         6.4905
       5112.00         8.5000         9.7112        -0.0036         2.4625        73.4728        48.9478       0.111100         1.8696        21.6807        16.8784         6.1175
