~Version Information Block
VERS .                 2.00:  CWLS LOG ASCII STANDARD - VERSION 2.00
WRAP .                   NO:  One line per depth step
~Well Information Block
#MNEM.UNIT        Data Type   Information
#---------- ----------------  -----------
STRT .FT            4550.00:  START DEPTH
STOP .FT            5250.00:  STOP DEPTH
STEP .FT               0.50:  STEP
NULL .              -999.25:  NULL VALUE
COMP .                     :  COMPANY
WELL .                    H:  WELL
FLD  .                     :  FIELD
LOC  .                     :  LOCATION
CTRY .                     :  COUNTRY
STAT .                     :  STATE
CNTY .                     :  COUNTY
SRVC .                     :  SERVICE COMPANY
DATE .                     :  DATE
API  .                     :  API NUMBER
UWI  .                     :  UNIQUE WELL ID
~Curve Information Block
#MNEM.UNIT         API CODE   Curve Description
#---------- ----------------  -----------------
DEPTH.FT                   :  
BS   .IN                   :  8.5
CALI .IN                   :  Caliper
DDEN .G/C3                 :  HDRA_1 Depth Shifted (Shift Pairs set)
DEN  .G/C3                 :  Bulk density
DT   .US/F                 :  Compressional sonic log
GR   .GAPI                 :  Gamma Ray
NPHI .V/V                  :  Neutron porosity log
PE   .B/E                   :  PEFZ_1 Depth Shifted (Shift Pairs set)
RDEEP.OHMM                 :  Deep resistivity log
RMED .OHMM                 :  Medium resistivity log
RSHAL.OHMM                 :  Micro-resistivity log
~Parameter Information Block
#MNEM.UNIT            Value   Description
#---------- ----------------  -----------
PROJECT.                 UB:  
SET  .                   UB:  
~Other Information Block
# 
~A       DEPTH             BS           CALI           DDEN            DEN             DT             GR           NPHI            PEF          RDEEP           RMED          RSHAL 
# ...
       4910.00         8.5000         8.6588        -0.0078         2.3709        72.4436        33.1305       0.129300         1.9168         3.9594         2.1600         2.0300
       4910.50         8.5000         8.6701        -0.0070         2.3766        71.9730        29.8849       0.137500         1.9075         3.9984         2.1788         2.0384
       4911.00         8.5000         8.6663        -0.0061         2.3788        71.7805        30.8842       0.141800         1.8950         4.0096         2.1695         2.0380
       4911.50         8.5000         8.6701        -0.0046         2.3866        72.2716        28.6518       0.142300         1.8713         3.9755         2.1325         2.0476
       4912.00         8.5000         8.6588        -0.0033         2.3880        72.1085        30.0684       0.137800         1.8434         4.0734         2.1987         2.0291
       4912.50         8.5000         8.6814        -0.0033         2.3880        72.3912        28.4200       0.135000         1.8220         4.2477         2.2802         2.0775
       4913.00         8.5000         8.6588        -0.0048         2.3795        72.3660        27.1218       0.134600         1.8173         4.3133         2.3255         2.1201
       4913.50         8.5000         8.6588        -0.0070         2.3735        71.6086        24.7963       0.137000         1.8203         4.1634         2.2365         2.1527
       4914.00         8.5000         8.6588        -0.0085         2.3727        71.4363        24.6369       0.133100         1.8208         4.1597         2.2458         2.1815
       4914.50         8.5000         8.6701        -0.0093         2.3717        71.5696        24.1176       0.125200         1.8237         4.2210         2.2801         2.2170
       4915.00         8.5000         8.6663        -0.0092         2.3754        71.2626        24.2736       0.123200         1.8254         4.2585         2.2925         2.2513
       4915.50         8.5000         8.6588        -0.0079         2.3845        70.3610        22.7453       0.119700         1.8272         4.3584         2.3603         2.3044
       4916.00         8.5000         8.6814        -0.0068         2.3902        69.8603        20.8895       0.112300         1.8375         4.6949         2.5480         2.3618
       4916.50         8.5000         8.6814        -0.0058         2.3966        69.7335        20.8634       0.108200         1.8508         4.7400         2.5760         2.4610
       4917.00         8.5000         8.6926        -0.0042         2.4051        70.5258        21.7721       0.107500         1.8417         4.7230         2.5779         2.4768
       4917.50         8.5000         8.6926        -0.0013         2.4213        71.7441        21.9369       0.111600         1.8054         4.7092         2.5965         2.4952
       4918.00         8.5000         8.7265         0.0005         2.4257        72.8476        23.5351       0.110400         1.7768         4.7842         2.6486         2.4481
       4918.50         8.5000         8.7114         0.0002         2.4249        73.0490        25.0873       0.110500         1.7878         4.8694         2.7376         2.4666
       4919.00         8.5000         8.7039        -0.0011         2.4225        72.5263        29.0256       0.109800         1.8323         4.9788         2.8277         2.5126
       4919.50         8.5000         8.7039        -0.0028         2.4225        71.2065        30.7963       0.113400         1.8868         5.0111         2.8822         2.6967
       4920.00         8.5000         8.7039        -0.0047         2.4238        71.0098        30.1094       0.109200         1.9287         5.1100         2.9885         2.7923
       4920.50         8.5000         8.7039        -0.0068         2.4223        70.0538        30.5826       0.103700         1.9481         5.2712         3.1500         2.9076
       4921.00         8.5000         8.7039        -0.0072         2.4339        69.5880        27.2137       0.097400         1.9327         5.5923         3.4039         3.0731
       4921.50         8.5000         8.7490        -0.0066         2.4442        68.6953        26.9975       0.090000         1.8971         5.8858         3.5803         3.3124
       4922.00         8.5000         8.7490        -0.0055         2.4599        68.2323        26.2781       0.085700         1.8575         6.2356         3.8235         3.6616
       4922.50         8.5000         8.7490        -0.0057         2.4645        68.0985        24.5904       0.084300         1.8346         6.7873         4.1282         3.9747
       4923.00         8.5000         8.7716        -0.0065         2.4693        66.0638        22.7528       0.075600         1.8334         7.5683         4.5701         4.3845
       4923.50         8.5000         8.7941        -0.0073         2.4712        65.4183        19.5834       0.063800         1.8476         8.6476         5.1531         4.9555
       4924.00         8.5000         8.8167        -0.0079         2.4780        64.1198        20.0920       0.054300         1.8605        10.2355         5.8734         6.0613
       4924.50         8.5000         8.8392        -0.0061         2.4993        63.8944        19.8523       0.046500         1.8504        12.8068         7.4547         8.0494
       4925.00         8.5000         8.9069        -0.0027         2.5224        64.8145        21.0934       0.042800         1.8191        16.7664        10.4439        10.8459
       4925.50         8.5000         9.0196         0.0004         2.5340        64.9660        23.9602       0.045100         1.7874        21.6373        14.4117        14.1247
       4926.00         8.5000         9.1098         0.0011         2.5182        66.5306        25.2846       0.060300         1.7768        12.8395         9.9638         9.4556
       4926.50         8.5000         9.1324        -0.0017         2.4695        69.5183        28.8470       0.080600         1.8170         8.1400         6.6755         4.6187
       4927.00         8.5000         9.2339        -0.0058         2.4416        71.8840        32.7297       0.110100         1.9149         4.6104         3.9511         3.5680
       4927.50         8.5000         9.3015        -0.0091         2.4322        73.6762        46.9841       0.121600         2.0683         3.7402         3.4152         3.8155
       4928.00         8.5000         9.8315        -0.0071         2.4649        75.2973        57.8893       0.129800         2.1874        11.8875        10.4123         6.7094
       4928.50         8.5000        10.0119        -0.0020         2.4715        75.6373        60.2999       0.139500         2.1830        22.5009        21.1015         7.9306
       4929.00         8.5000        10.2938         0.0005         2.4563        75.4526        49.7841       0.134700         2.0657        16.0275        15.2434         6.7353
       4929.50         8.5000        10.3952        -0.0018         2.4302        77.7462        41.1017       0.127000         1.9410        13.8734        13.1507         5.9252
       4930.00         8.5000        10.4742        -0.0046         2.4371        76.9793        40.6507       0.123600         1.8897        13.6666        12.7838         6.4307
       4930.50         8.5000        10.5869        -0.0036         2.4751        74.5479        48.1208       0.128000         1.9006        17.9737        15.9952        10.4304
       4931.00         8.5000        10.6884        -0.0008         2.5174        72.5438        58.4909       0.134100         1.9349        31.3474        28.0504        24.6291
       4931.50         8.5000        10.7937         0.0016         2.5399        70.6968        73.0436       0.142800         1.9736        68.3270        66.3391        66.4510
       4932.00         8.5000        10.9478         0.0047         2.5378        70.7132        83.3592       0.157600         2.0025        95.3762        99.0463        30.7417
