~Version Information Block
VERS .                 2.00:  CWLS LOG ASCII STANDARD - VERSION 2.00
WRAP .                   NO:  One line per depth step
~Well Information Block
#MNEM.UNIT        Data Type   Information
#---------- ----------------  -----------
STRT .FT            4550.00:  START DEPTH
STOP .FT            5250.00:  STOP DEPTH
STEP .FT               0.50:  STEP
NULL .              -999.25:  NULL VALUE
COMP .                     :  COMPANY
WELL .                    H:  WELL
FLD  .                     :  FIELD
LOC  .                     :  LOCATION
CTRY .                     :  COUNTRY
STAT .                     :  STATE
CNTY .                     :  COUNTY
SRVC .                     :  SERVICE COMPANY
DATE .                     :  DATE
API  .                     :  API NUMBER
UWI  .                     :  UNIQUE WELL ID
~Curve Information Block
#MNEM.UNIT         API CODE   Curve Description
#---------- ----------------  -----------------
DEPTH.FT                   :  
BS   .IN                   :  8.5
CALI .IN                   :  Caliper
DDEN .G/C3                 :  HDRA_1 Depth Shifted (Shift Pairs set)
DEN  .G/C3                 :  Bulk density
DT   .US/F                 :  Compressional sonic log
GR   .GAPI                 :  Gamma Ray
NPHI .V/V                  :  Neutron porosity log
PE   .B/E                   :  PEFZ_1 Depth Shifted (Shift Pairs set)
RDEEP.OHMM                 :  Deep resistivity log
RMED .OHMM                 :  Medium resistivity log
RSHAL.OHMM                 :  Micro-resistivity log
~Parameter Information Block
#MNEM.UNIT            Value   Description
#---------- ----------------  -----------
PROJECT.                 UB:  
SET  .                   UB:  
~Other Information Block
# 
~A       DEPTH             BS           CALI           DDEN            DEN             DT             GR           NPHI            PEF          RDEEP           RMED          RSHAL 
# ...
       4640.00         8.5000        11.8498         0.0012         2.4887        76.0030        93.3240       0.141200         2.1414        54.5662        43.5931        15.3671
       4640.50         8.5000        11.8273         0.0025         2.4788        76.5810        92.5451       0.141700         2.0993        40.3591        33.7090        14.8019
       4641.00         8.5000        11.8160         0.0032         2.4439        78.3321        84.4960       0.152500         2.0332        31.4291        25.4834        11.0896
       4641.50         8.5000        11.8160         0.0038         2.4205        79.1512        71.8717       0.152200         1.9736        26.1052        22.6823         7.9298
       4642.00         8.5000        11.8498         0.0034         2.4130        79.1488        63.9524       0.146100         1.9376        26.5434        22.4360         7.7797
       4642.50         8.5000        11.8047         0.0026         2.4277        78.1706        61.0963       0.137000         1.9214        26.8934        22.8578         8.3258
       4643.00         8.5000        11.7709         0.0014         2.4488        76.6950        64.9119       0.133600         1.9239        26.2225        23.1312         8.9924
       4643.50         8.5000        11.7934         0.0004         2.4769        74.5490        73.3504       0.130000         1.9639        32.5318        27.8631         8.6561
       4644.00         8.5000        11.7934        -0.0006         2.4946        73.5400        80.6980       0.128900         2.0430        50.9362        40.7882        11.1095
       4644.50         8.5000        11.7371        -0.0016         2.4943        72.6411        82.3215       0.124500         2.1099        56.6379        41.4860        15.0417
       4645.00         8.5000        11.7333        -0.0018         2.4786        73.6807        78.4268       0.127800         2.1191        55.6979        38.1345        18.2757
       4645.50         8.5000        11.7258        -0.0011         2.4552        72.7855        74.0652       0.113800         2.0885        59.1778        37.5875        14.9644
       4646.00         8.5000        11.7596         0.0003         2.4352        73.7509        71.7598       0.119200         2.0470        56.1647        34.5040        12.2933
       4646.50         8.5000        11.8836         0.0031         2.4260        74.0329        66.0475       0.118900         2.0382        60.9087        35.2152         8.7927
       4647.00         8.5000        11.8498         0.0068         2.4351        72.8190        59.2967       0.117100         2.0410        63.5595        35.4251         8.3700
       4647.50         8.5000        11.7596         0.0078         2.4411        73.3499        53.7470       0.111200         2.0417        62.5414        33.3527         8.4232
       4648.00         8.5000        11.7032         0.0052         2.4425        72.6719        56.2560       0.104600         2.0300        64.3392        32.0394        10.4598
       4648.50         8.5000        11.6807         0.0013         2.4406        72.3273        56.9051       0.107000         2.0091        68.1209        31.3555        11.1503
       4649.00         8.5000        11.6356        -0.0018         2.4313        71.7671        57.9325       0.107000         2.0122        73.6752        32.0177        12.5507
       4649.50         8.5000        11.6130        -0.0024         2.4301        71.5296        53.9954       0.106200         2.0007        78.3143        32.4596        13.8033
       4650.00         8.5000        11.6130        -0.0019         2.4188        71.5817        51.7884       0.104300         1.9812        70.9535        29.3351        13.1056
       4650.50         8.5000        11.5679         0.0002         2.4200        72.3639        51.4102       0.101800         1.9458        67.3980        27.5360        10.6095
       4651.00         8.5000        11.5454         0.0013         2.4114        73.8176        53.7470       0.101900         1.9329        60.7516        25.2591         8.4419
       4651.50         8.5000        11.5228         0.0018         2.4138        74.6435        53.5211       0.107700         1.9332        58.6520        24.7069         8.2172
       4652.00         8.5000        11.5003         0.0016         2.4097        75.2825        52.8720       0.114700         1.9497        54.8103        23.7812         8.9463
       4652.50         8.5000        11.5003         0.0012         2.4127        75.3344        58.5705       0.115600         1.9653        45.8001        21.1498         9.5510
       4653.00         8.5000        11.5003         0.0001         2.4073        75.9375        66.7157       0.122600         1.9971        42.9337        20.4288         9.0752
       4653.50         8.5000        11.5003        -0.0009         2.4095        75.8029        70.9999       0.124900         2.0275        42.2119        20.7639         9.0928
       4654.00         8.5000        11.5115        -0.0010         2.4156        76.1434        73.2206       0.127400         2.0299        40.6322        20.2997         9.1007
       4654.50         8.5000        11.5604        -0.0007         2.4205        76.3922        75.1679       0.128200         2.0117        39.2237        20.1457         8.3423
       4655.00         8.5000        11.5905         0.0002         2.4247        76.3953        82.3392       0.135600         1.9759        38.3481        20.2406         7.7254
       4655.50         8.5000        11.6243         0.0003         2.4120        76.6436        79.2904       0.140300         1.9599        36.4572        19.9204         7.9696
       4656.00         8.5000        11.6581         0.0002         2.4026        75.8869        74.6332       0.137000         1.9515        37.9092        21.1985         8.0721
       4656.50         8.5000        11.6807         0.0003         2.4043        75.6023        65.2431       0.130000         1.9445        41.8577        23.6558         8.8445
       4657.00         8.5000        11.7709         0.0007         2.4194        75.1771        62.7095       0.131200         1.9438        45.0225        25.3836         9.0374
       4657.50         8.5000        11.6807         0.0006         2.4280        75.8592        64.9001       0.133800         1.9593        42.7729        24.9171         9.5728
       4658.00         8.5000        11.7183        -0.0002         2.4225        76.4166        66.5996       0.141700         1.9892        36.3279        22.3762         8.4783
       4658.50         8.5000        11.7483        -0.0003         2.4151        76.0521        66.9477       0.149000         2.0095        35.6184        22.3129         7.9748
       4659.00         8.5000        11.8160         0.0009         2.4163        76.6546        59.8074       0.146100         2.0092        42.2124        26.9328         8.3785
       4659.50         8.5000        11.8836         0.0027         2.4255        76.1229        58.1197       0.138600         2.0040        40.1278        26.6543         8.1470
       4660.00         8.5000        11.8836         0.0016         2.4202        76.0801        57.1224       0.127300         2.0213        35.1706        24.1757         8.0967
       4660.50         8.5000        11.8611        -0.0010         2.4243        76.9466        61.1349       0.134100         2.0382        38.0890        26.3952         8.2591
       4661.00         8.5000        11.8611        -0.0039         2.4237        76.0600        62.3034       0.137900         2.0549        37.6297        26.2141         8.4757
       4661.50         8.5000        11.8836        -0.0052         2.4337        75.4215        59.7069       0.142200         2.0644        39.1413        27.4217         8.7067
       4662.00         8.5000        11.8611        -0.0054         2.4335        75.1481        58.9400       0.134200         2.0718        45.5036        31.9090         9.8990
