~Version Information Block
VERS .                 2.00:  CWLS LOG ASCII STANDARD - VERSION 2.00
WRAP .                   NO:  One line per depth step
~Well Information Block
#MNEM.UNIT        Data Type   Information
#---------- ----------------  -----------
STRT .FT            4550.00:  START DEPTH
STOP .FT            5250.00:  STOP DEPTH
STEP .FT               0.50:  STEP
NULL .              -999.25:  NULL VALUE
COMP .                     :  COMPANY
WELL .                    H:  WELL
FLD  .                     :  FIELD
LOC  .                     :  LOCATION
CTRY .                     :  COUNTRY
STAT .                     :  STATE
CNTY .                     :  COUNTY
SRVC .                     :  SERVICE COMPANY
DATE .                     :  DATE
API  .                     :  API NUMBER
UWI  .                     :  UNIQUE WELL ID
~Curve Information Block
#MNEM.UNIT         API CODE   Curve Description
#---------- ----------------  -----------------
DEPTH.FT                   :  
BS   .IN                   :  8.5
CALI .IN                   :  Caliper
DDEN .G/C3                 :  HDRA_1 Depth Shifted (Shift Pairs set)
DEN  .G/C3                 :  Bulk density
DT   .US/F                 :  Compressional sonic log
GR   .GAPI                 :  Gamma Ray
NPHI .V/V                  :  Neutron porosity log
PE   .B/E                   :  PEFZ_1 Depth Shifted (Shift Pairs set)
RDEEP.OHMM                 :  Deep resistivity log
RMED .OHMM                 :  Medium resistivity log
RSHAL.OHMM                 :  Micro-resistivity log
~Parameter Information Block
#MNEM.UNIT            Value   Description
#---------- ----------------  -----------
PROJECT.                 UB:  
SET  .                   UB:  
~Other Information Block
# 
~A       DEPTH             BS           CALI           DDEN            DEN             DT             GR           NPHI            PEF          RDEEP           RMED          RSHAL 
# ...
       5225.00         8.5000         8.7152        -0.0050         2.3835        73.8283        35.9460       0.155000         1.8842         5.3862         2.8954         2.3948
       5225.50         8.5000         8.6814        -0.0070         2.3804        75.7728        33.6030       0.155800         1.9098         5.2381         2.8219         2.3757
       5226.00         8.5000         8.6588        -0.0078         2.3725        76.7544        29.2035       0.161900         1.8860         4.5848         2.4905         2.1322
       5226.50         8.5000         8.6212        -0.0076         2.3604        77.2881        24.1473       0.163900         1.8170         4.1285         2.2939         1.8992
       5227.00         8.5000         8.6137        -0.0066         2.3522        77.2983        23.2385       0.164400         1.7504         3.9814         2.2687         1.8104
       5227.50         8.5000         8.6024        -0.0057         2.3464        76.9133        22.5853       0.159100         1.7125         3.8515         2.1849         1.7760
       5228.00         8.5000         8.5799        -0.0053         2.3450        76.4249        21.0107       0.156700         1.7003         3.8174         2.2165         1.7740
       5228.50         8.5000         8.5799        -0.0057         2.3402        76.4190        18.7795       0.153300         1.7004         3.7684         2.1718         1.7201
       5229.00         8.5000         8.5686        -0.0063         2.3399        76.1425        19.2457       0.154200         1.7089         3.7290         2.1282         1.6841
       5229.50         8.5000         8.5686        -0.0059         2.3454        77.0487        21.9888       0.152500         1.7229         3.7613         2.1307         1.6888
       5230.00         8.5000         8.5686        -0.0061         2.3465        75.8150        21.4936       0.146100         1.7368         3.8022         2.1463         1.7882
       5230.50         8.5000         8.5686        -0.0060         2.3577        75.8124        21.0315       0.146500         1.7458         3.8783         2.1374         1.8802
       5231.00         8.5000         8.5686        -0.0050         2.3602        76.1133        22.8490       0.150600         1.7551         3.9769         2.1920         1.9453
       5231.50         8.5000         8.5987        -0.0039         2.3659        75.8601        22.9753       0.156900         1.7705         3.9456         2.1410         1.9095
       5232.00         8.5000         8.6212        -0.0039         2.3629        76.0377        22.5973       0.156800         1.7857         4.0377         2.1783         1.9469
       5232.50         8.5000         8.6362        -0.0048         2.3638        76.0906        20.6454       0.154000         1.7961         4.4830         2.3730         2.0882
       5233.00         8.5000         8.6588        -0.0046         2.3661        77.3498        22.2068       0.158800         1.7924         4.6429         2.4132         2.0960
       5233.50         8.5000         8.6588        -0.0032         2.3682        78.9778        22.4550       0.157700         1.7790         4.1904         2.1921         2.0051
       5234.00         8.5000         8.6738        -0.0032         2.3582        81.3566        20.6420       0.161600         1.7753         3.9863         2.0983         1.8805
       5234.50         8.5000         8.6701        -0.0047         2.3492        81.9893        20.9017       0.158400         1.7927         3.9319         2.0875         1.8335
       5235.00         8.5000         8.6588        -0.0057         2.3426        80.3146        20.2490       0.159100         1.8283         3.8817         2.0746         1.7845
       5235.50         8.5000         8.6475        -0.0054         2.3447        79.3623        22.9753       0.157000         1.8630         3.7898         2.0422         1.7083
       5236.00         8.5000         8.6588        -0.0042         2.3495        78.9044        22.2876       0.156800         1.8809         3.6708         1.9856         1.6557
       5236.50         8.5000         8.6588        -0.0036         2.3536        79.4166        23.8490       0.158900         1.8798         3.6725         1.9910         1.6523
       5237.00         8.5000         8.6588        -0.0036         2.3538        78.8615        25.1473       0.161900         1.8676         3.7050         2.0071         1.6694
       5237.50         8.5000         8.6588        -0.0034         2.3566        77.8794        24.4069       0.166100         1.8513         3.6869         1.9758         1.6855
       5238.00         8.5000         8.6663        -0.0033         2.3501        77.6511        24.2771       0.163400         1.8437         3.6619         1.9693         1.6518
       5238.50         8.5000         8.6137        -0.0034         2.3525        78.2935        20.6420       0.160900         1.8396         3.6063         1.9349         1.6164
       5239.00         8.5000         8.6588        -0.0046         2.3449        77.7785        22.1055       0.156800         1.8356         3.6240         1.9772         1.6056
       5239.50         8.5000         8.6588        -0.0068         2.3435        78.0194        21.8459       0.152600         1.8452         3.6739         2.0071         1.6204
       5240.00         8.5000         8.6137        -0.0077         2.3439        77.8006        23.1396       0.151400         1.8701         3.8096         2.0704         1.6339
       5240.50         8.5000         8.6137        -0.0067         2.3489        77.9075        22.9744       0.156600         1.8973         3.7909         2.0214         1.6152
       5241.00         8.5000         8.6137        -0.0046         2.3547        77.7373        22.8445       0.154600         1.9071         3.8096         2.0053         1.6206
       5241.50         8.5000         8.6250        -0.0041         2.3549        77.2415        23.6280       0.155300         1.9221         4.0157         2.0986         1.6816
       5242.00         8.5000         8.6212        -0.0046         2.3620        77.3740        27.5227       0.146000         1.9673         4.2684         2.2065         1.8066
       5242.50         8.5000         8.6137        -0.0046         2.3685        76.5740        33.3572       0.149700         2.0160         4.7318         2.4227         2.0188
       5243.00         8.5000         8.6362        -0.0037         2.3725        77.1770        36.8479       0.153100         2.0110         4.6489         2.3930         2.1128
       5243.50         8.5000         8.6250        -0.0036         2.3633        78.0818        34.7652       0.167000         1.9500         4.0117         2.0841         2.0084
       5244.00         8.5000         8.6250        -0.0053         2.3537        79.8851        29.5798       0.172000         1.8881         3.8252         2.0064         1.7920
       5244.50         8.5000         8.6137        -0.0070         2.3512        80.0740        27.3873       0.170600         1.8616         3.7572         2.0049         1.7129
       5245.00         8.5000         8.6137        -0.0070         2.3568        79.9034        28.5613       0.168900         1.8571         3.7218         1.9862         1.7064
       5245.50         8.5000         8.6137        -0.0058         2.3581        78.5341        29.9225       0.169300         1.8514         3.6939         1.9858         1.7173
       5246.00         8.5000         8.6250        -0.0057         2.3473        78.6217        31.3506       0.170500         1.8534         3.7106         1.9834         1.6900
       5246.50         8.5000         8.6137        -0.0068         2.3361        79.1915        29.5330       0.166000         1.8675         3.7515         1.9756         1.6773
       5247.00         8.5000         8.6250        -0.0069         2.3361        78.5807        28.1718       0.162900         1.8733         3.8242         2.0082         1.6828
