~Version Information Block
VERS .                 2.00:  CWLS LOG ASCII STANDARD - VERSION 2.00
WRAP .                   NO:  One line per depth step
~Well Information Block
#MNEM.UNIT        Data Type   Information
#---------- ----------------  -----------
STRT .FT            4550.00:  START DEPTH
STOP .FT            5250.00:  STOP DEPTH
STEP .FT               0.50:  STEP
NULL .              -999.25:  NULL VALUE
COMP .                     :  COMPANY
WELL .                    H:  WELL
FLD  .                     :  FIELD
LOC  .                     :  LOCATION
CTRY .                     :  COUNTRY
STAT .                     :  STATE
CNTY .                     :  COUNTY
SRVC .                     :  SERVICE COMPANY
DATE .                     :  DATE
API  .                     :  API NUMBER
UWI  .                     :  UNIQUE WELL ID
~Curve Information Block
#MNEM.UNIT         API CODE   Curve Description
#---------- ----------------  -----------------
DEPTH.FT                   :  
BS   .IN                   :  8.5
CALI .IN                   :  Caliper
DDEN .G/C3                 :  HDRA_1 Depth Shifted (Shift Pairs set)
DEN  .G/C3                 :  Bulk density
DT   .US/F                 :  Compressional sonic log
GR   .GAPI                 :  Gamma Ray
NPHI .V/V                  :  Neutron porosity log
PE   .B/E                   :  PEFZ_1 Depth Shifted (Shift Pairs set)
RDEEP.OHMM                 :  Deep resistivity log
RMED .OHMM                 :  Medium resistivity log
RSHAL.OHMM                 :  Micro-resistivity log
~Parameter Information Block
#MNEM.UNIT            Value   Description
#---------- ----------------  -----------
PROJECT.                 UB:  
SET  .                   UB:  
~Other Information Block
# 
~A       DEPTH             BS           CALI           DDEN            DEN             DT             GR           NPHI            PEF          RDEEP           RMED          RSHAL 
# ...
       4775.00         8.5000         8.8505         0.0050         2.4422        70.5080        28.7032       0.073800         1.8776        51.1049        17.4584         8.4970
       4775.50         8.5000         8.8768         0.0120         2.4378        72.4196        29.2365       0.084100         1.9014        45.9756        15.1103         6.4261
       4776.00         8.5000         8.8693         0.0136         2.4356        73.6180        30.1191       0.094300         1.9118        48.1847        15.1944         6.1035
       4776.50         8.5000         8.8730         0.0074         2.4243        73.3199        28.6910       0.099000         1.9014        48.0937        14.3403         6.9078
       4777.00         8.5000         8.8392         0.0005         2.4245        73.7988        29.4700       0.098500         1.8830        49.1384        13.9577         8.7995
       4777.50         8.5000         8.8392        -0.0033         2.4294        73.6205        31.2813       0.099400         1.8835        56.2566        15.4258         9.2468
       4778.00         8.5000         8.8392        -0.0056         2.4375        72.0592        31.6708       0.096600         1.8915        58.4021        15.7012        10.5289
       4778.50         8.5000         8.8279        -0.0079         2.4345        71.6301        30.2427       0.096200         1.8987        59.2977        15.6349        10.9568
       4779.00         8.5000         8.8392        -0.0091         2.4337        69.6620        28.8208       0.088000         1.8961        55.8588        14.8878        10.9737
       4779.50         8.5000         8.8167        -0.0080         2.4373        69.6565        26.6138       0.087400         1.8783        50.4485        13.6446        10.2735
       4780.00         8.5000         8.8091        -0.0060         2.4422        70.4828        27.6471       0.092900         1.8509        45.3068        12.3551         9.3034
       4780.50         8.5000         8.7828        -0.0041         2.4449        70.7812        27.7769       0.100600         1.8229        39.3456        11.0014         8.4058
       4781.00         8.5000         8.7716        -0.0032         2.4401        71.6375        29.3348       0.099400         1.7997        38.0339        10.7802         7.9361
       4781.50         8.5000         8.7603        -0.0027         2.4391        72.2393        28.4314       0.100000         1.7766        34.9895        10.3481         7.6817
       4782.00         8.5000         8.7265        -0.0022         2.4354        73.5807        25.3156       0.099800         1.7597        35.8167        10.6406         7.4736
       4782.50         8.5000         8.7265        -0.0018         2.4319        74.8676        22.4595       0.102800         1.7599        31.9930         9.8451         7.4041
       4783.00         8.5000         8.7265        -0.0009         2.4282        74.6350        24.2712       0.104000         1.7752        28.3935         8.8044         6.9029
       4783.50         8.5000         8.7377        -0.0007         2.4209        74.1941        26.7378       0.112600         1.7966        27.8370         8.7888         6.6735
       4784.00         8.5000         8.7377        -0.0010         2.4189        74.3582        25.2157       0.114500         1.8022        26.6415         8.8543         6.5153
       4784.50         8.5000         8.7265        -0.0023         2.4087        74.2125        20.6777       0.112600         1.8040        24.9401         8.4945         6.4838
       4785.00         8.5000         8.7265        -0.0034         2.4040        73.8235        20.1496       0.108600         1.8071        24.6761         8.5120         6.3467
       4785.50         8.5000         8.7340        -0.0034         2.4000        75.5548        22.5601       0.109300         1.8073        23.2251         8.2756         6.0968
       4786.00         8.5000         8.7377        -0.0024         2.4040        74.0110        23.7285       0.113400         1.7926        21.5640         7.7673         6.0220
       4786.50         8.5000         8.7265        -0.0015         2.4045        74.5226        23.6075       0.109100         1.7703        20.1304         7.3740         5.8614
       4787.00         8.5000         8.7377        -0.0026         2.3911        79.7243        21.6779       0.103300         1.7700        19.1353         7.1226         5.7229
       4787.50         8.5000         8.7377        -0.0050         2.3818        76.5458        20.5095       0.103700         1.7843        18.9137         7.1791         5.7666
       4788.00         8.5000         8.7377        -0.0070         2.3789        74.0226        18.1159       0.104500         1.7993        19.1949         7.4275         5.9993
       4788.50         8.5000         8.7490        -0.0070         2.3898        72.1439        17.4693       0.097500         1.8132        20.2955         8.0085         6.4007
       4789.00         8.5000         8.7490        -0.0053         2.3985        77.5112        18.6377       0.088700         1.8369        21.4763         8.8027         6.8561
       4789.50         8.5000         8.7265        -0.0029         2.4102        77.5884        20.5077       0.094000         1.8634        18.9506         8.0899         6.8297
       4790.00         8.5000         8.7377        -0.0010         2.4168        75.0829        22.0656       0.095900         1.8773        17.6451         7.6606         6.4150
       4790.50         8.5000         8.7377        -0.0001         2.4195        76.0517        22.0656       0.102300         1.8836        17.2305         7.5400         6.1820
       4791.00         8.5000         8.7490        -0.0014         2.4099        76.7708        24.0173       0.101900         1.9084        15.2297         7.0129         5.9320
       4791.50         8.5000         8.7490        -0.0048         2.3982        75.5167        25.8349       0.110300         1.9585        12.9415         6.0685         6.0816
       4792.00         8.5000         8.7265        -0.0075         2.3930        80.1019        28.5612       0.110000         2.0012        14.7579         7.1253         5.9535
       4792.50         8.5000         8.7490        -0.0076         2.3951        78.8578        26.3499       0.114100         1.9912        15.8587         7.8292         6.2774
       4793.00         8.5000         8.7490        -0.0056         2.4009        78.0118        23.9876       0.110900         1.9282        16.0808         8.0839         5.9997
       4793.50         8.5000         8.7490        -0.0044         2.4042        77.0592        20.6087       0.111500         1.8698        17.2474         8.7937         6.1778
       4794.00         8.5000         8.7490        -0.0051         2.4092        76.6218        21.5217       0.105000         1.8706        17.6243         9.1385         6.3886
       4794.50         8.5000         8.7377        -0.0060         2.4209        72.0534        25.0524       0.105200         1.9290        15.4128         8.0613         6.4169
       4795.00         8.5000         8.7603        -0.0065         2.4263        71.9076        28.9507       0.104100         1.9911        10.1774         5.4194         5.6231
       4795.50         8.5000         8.7603        -0.0058         2.4287        73.2733        29.4700       0.111800         1.9987        13.8424         7.4973         5.7066
       4796.00         8.5000         8.7490        -0.0058         2.4131        73.3199        25.7011       0.110200         1.9535        17.2497         9.5615         6.8970
       4796.50         8.5000         8.7377        -0.0063         2.4034        74.9270        23.2345       0.104300         1.8970        17.9389         9.8571         6.9617
       4797.00         8.5000         8.7490        -0.0061         2.4013        75.0716        22.0660       0.095200         1.8625        18.0254        10.1399         7.2889
