~Version Information Block
VERS .                 2.00:  CWLS LOG ASCII STANDARD - VERSION 2.00
WRAP .                   NO:  One line per depth step
~Well Information Block
#MNEM.UNIT        Data Type   Information
#---------- ----------------  -----------
STRT .FT            4550.00:  START DEPTH
STOP .FT            5250.00:  STOP DEPTH
STEP .FT               0.50:  STEP
NULL .              -999.25:  NULL VALUE
COMP .                     :  COMPANY
WELL .                    H:  WELL
FLD  .                     :  FIELD
LOC  .                     :  LOCATION
CTRY .                     :  COUNTRY
STAT .                     :  STATE
CNTY .                     :  COUNTY
SRVC .                     :  SERVICE COMPANY
DATE .                     :  DATE
API  .                     :  API NUMBER
UWI  .                     :  UNIQUE WELL ID
~Curve Information Block
#MNEM.UNIT         API CODE   Curve Description
#---------- ----------------  -----------------
DEPTH.FT                   :  
BS   .IN                   :  8.5
CALI .IN                   :  Caliper
DDEN .G/C3                 :  HDRA_1 Depth Shifted (Shift Pairs set)
DEN  .G/C3                 :  Bulk density
DT   .US/F                 :  Compressional sonic log
GR   .GAPI                 :  Gamma Ray
NPHI .V/V                  :  Neutron porosity log
PE   .B/E                   :  PEFZ_1 Depth Shifted (Shift Pairs set)
RDEEP.OHMM                 :  Deep resistivity log
RMED .OHMM                 :  Medium resistivity log
RSHAL.OHMM                 :  Micro-resistivity log
~Parameter Information Block
#MNEM.UNIT            Value   Description
#---------- ----------------  -----------
PROJECT.                 UB:  
SET  .                   UB:  
~Other Information Block
# 
~A       DEPTH             BS           CALI           DDEN            DEN             DT             GR           NPHI            PEF          RDEEP           RMED          RSHAL 
# ...
       5045.00         8.5000        12.4925         0.0127         2.4186        74.7670        61.2461       0.120700         1.9464        18.3392        18.6098         3.7302
       5045.50         8.5000        12.4775         0.0235         2.3929        73.5152        52.0609       0.112200         1.9402        21.1979        21.3474         3.4772
       5046.00         8.5000        12.4775         0.0327         2.3840        71.6522        45.8143       0.109800         1.9220        20.9677        21.9151         3.5410
       5046.50         8.5000        12.5076         0.0326         2.3795        72.3526        45.1814       0.113400         1.9008        26.6708        28.4128         2.9793
       5047.00         8.5000        12.4249         0.0261         2.3858        72.2559        43.3949       0.110500         1.8876        31.3721        33.6401         1.8181
       5047.50         8.5000        12.5752         0.0197         2.3817        71.8370        44.6131       0.110300         1.8870        22.9088        24.4432         1.1580
       5048.00         8.5000        12.4023         0.0188         2.3952        74.8098        51.9432       0.115500         1.8920        19.7611        21.0474         1.1610
       5048.50         8.5000        12.4625         0.0180         2.4138        75.5583        59.0895       0.121400         1.8902        17.9981        19.5243         1.7343
       5049.00         8.5000        12.3910         0.0139         2.4295        76.6987        66.3115       0.125000         1.8885        16.4763        17.6622         3.6907
       5049.50         8.5000        12.2144         0.0064         2.4357        78.4824        75.4354       0.131500         1.8935        14.6462        16.0558         5.4972
       5050.00         8.5000        12.1167         0.0017         2.4444        77.9498        75.9317       0.134600         1.9130        15.6030        17.2848         5.8642
       5050.50         8.5000        12.1016         0.0002         2.4423        77.2926        75.7764       0.139200         1.9447        16.0257        17.3425         5.9608
       5051.00         8.5000        12.0640         0.0002         2.4368        77.5429        67.1488       0.142000         1.9595        12.7162        13.7118         5.5030
       5051.50         8.5000        12.0114         0.0006         2.4269        77.6181        64.9934       0.136000         1.9571        14.0512        14.8940         5.0858
       5052.00         8.5000        11.9889         0.0018         2.4321        77.2947        66.9251       0.140300         1.9493        13.9607        14.8087         5.0304
       5052.50         8.5000        11.9438         0.0043         2.4543        76.5248        73.3889       0.143600         1.9725        16.5148        17.2254         5.5297
       5053.00         8.5000        11.8385         0.0057         2.4823        76.6697        84.6747       0.148000         2.0057        25.3221        26.5192         7.5791
       5053.50         8.5000        11.8235         0.0049         2.5035        75.4012        90.8284       0.149400         2.0285        35.3712        36.1830        12.5924
       5054.00         8.5000        11.8085         0.0017         2.5056        74.3242        90.7773       0.145400         2.0271        25.6170        26.7260        16.8915
       5054.50         8.5000        11.7408        -0.0007         2.5062        73.7557        91.2745       0.140700         2.0227        33.5152        34.2432        16.0453
       5055.00         8.5000        11.7032        -0.0012         2.5080        73.5424        89.2894       0.136700         2.0268        30.5263        32.1885        17.5143
       5055.50         8.5000        11.6581        -0.0002         2.5183        73.4139        93.8248       0.136600         2.0247        30.9084        32.9069        20.6714
       5056.00         8.5000        11.5905         0.0005         2.5204        73.4660        90.7609       0.139600         2.0168        39.1858        40.7890        22.6066
       5056.50         8.5000        11.5341         0.0009         2.5177        73.9432        87.5083       0.135700         1.9946        29.7219        32.0161        23.3450
       5057.00         8.5000        11.5003         0.0012         2.5076        74.1431        79.0416       0.135600         1.9890        25.8184        27.3101        15.7711
       5057.50         8.5000        11.4664         0.0037         2.5037        75.0798        79.8153       0.126100         2.0020        23.9942        25.4089        13.4968
       5058.00         8.5000        11.3875         0.0114         2.4997        74.7709        77.4103       0.125600         2.0287        25.3873        26.1658        11.7991
       5058.50         8.5000        11.3650         0.0223         2.5072        75.2534        79.9705       0.123400         2.0447        22.4683        23.8412         9.4467
       5059.00         8.5000        11.4326         0.0264         2.5086        74.7246        78.6876       0.125900         2.0341        28.1754        29.3883        10.2870
       5059.50         8.5000        11.3274         0.0203         2.5143        73.9756        80.9817       0.133200         1.9987        30.3486        31.9170        12.3630
       5060.00         8.5000        11.3048         0.0097         2.5130        73.8152        84.6733       0.145000         1.9618        28.4547        30.4033        19.2444
       5060.50         8.5000        11.3123         0.0034         2.5163        72.9694        85.8644       0.150500         1.9449        37.7685        39.4328        18.9434
       5061.00         8.5000        11.2372         0.0014         2.5141        72.5411        91.7091       0.141400         1.9568        33.2207        36.7744        19.6873
       5061.50         8.5000        11.1996         0.0016         2.5101        72.4179        88.2284       0.131500         1.9714        38.6301        42.3587        22.3831
       5062.00         8.5000        11.1770         0.0033         2.5032        72.2768        79.7768       0.130900         1.9918        29.5186        32.5356        18.3607
       5062.50         8.5000        11.1394         0.0061         2.5016        72.4177        72.0351       0.129900         2.0121        25.0161        27.0878        14.5622
       5063.00         8.5000        11.0267         0.0094         2.5069        72.2533        68.8773       0.131300         2.0346        29.1357        30.8177        13.3357
       5063.50         8.5000        10.9891         0.0248         2.5175        72.5223        74.1510       0.131700         2.0528        40.7617        40.5237        15.9705
       5064.00         8.5000        11.0041         0.0542         2.4263        71.2131        78.2204       0.146100         2.0727        49.4738        46.3787        22.7509
       5064.50         8.5000        10.9515         0.1082         2.2743        67.2915        80.1951       0.129600         2.0661        74.9237        66.7659         6.7511
       5065.00         8.5000        12.0528         0.2070         2.2104        64.9825        72.2845       0.093700         1.9706        84.9075        79.0795         3.2795
       5065.50         8.5000        12.4173         0.3210         2.2742        63.4744        58.5875       0.063700         1.8123        88.2273        90.7345         2.5952
       5066.00         8.5000        12.4625         0.4040         2.3677        62.5434        43.7385       0.055400         1.6569        75.5457        92.8290         2.4992
       5066.50         8.5000        12.9774         0.4272         2.3503        62.8909        37.9597       0.052900         1.5595        76.7607        94.1180         1.9503
       5067.00         8.5000        13.5148         0.4301         2.3079        63.0470        34.6178       0.048200         1.4993       111.2743       113.6596         1.3559
