~Version Information Block
VERS .                 2.00:  CWLS LOG ASCII STANDARD - VERSION 2.00
WRAP .                   NO:  One line per depth step
~Well Information Block
#MNEM.UNIT        Data Type   Information
#---------- ----------------  -----------
STRT .FT            4550.00:  START DEPTH
STOP .FT            5250.00:  STOP DEPTH
STEP .FT               0.50:  STEP
NULL .              -999.25:  NULL VALUE
COMP .                     :  COMPANY
WELL .                    H:  WELL
FLD  .                     :  FIELD
LOC  .                     :  LOCATION
CTRY .                     :  COUNTRY
STAT .                     :  STATE
CNTY .                     :  COUNTY
SRVC .                     :  SERVICE COMPANY
DATE .                     :  DATE
API  .                     :  API NUMBER
UWI  .                     :  UNIQUE WELL ID
~Curve Information Block
#MNEM.UNIT         API CODE   Curve Description
#---------- ----------------  -----------------
DEPTH.FT                   :  
BS   .IN                   :  8.5
CALI .IN                   :  Caliper
DDEN .G/C3                 :  HDRA_1 Depth Shifted (Shift Pairs set)
DEN  .G/C3                 :  Bulk density
DT   .US/F                 :  Compressional sonic log
GR   .GAPI                 :  Gamma Ray
NPHI .V/V                  :  Neutron porosity log
PE   .B/E                   :  PEFZ_1 Depth Shifted (Shift Pairs set)
RDEEP.OHMM                 :  Deep resistivity log
RMED .OHMM                 :  Medium resistivity log
RSHAL.OHMM                 :  Micro-resistivity log
~Parameter Information Block
#MNEM.UNIT            Value   Description
#---------- ----------------  -----------
PROJECT.                 UB:  
SET  .                   UB:  
~Other Information Block
# 
~A       DEPTH             BS           CALI           DDEN            DEN             DT             GR           NPHI            PEF          RDEEP           RMED          RSHAL 
# ...
       4955.00         8.5000        12.1317         0.0288         2.4607        76.6466        96.1930       0.131000         2.0635        22.0945        24.4594         9.5849
       4955.50         8.5000        11.7784         0.0639         2.4278        77.2204       108.6437       0.134500         2.1038        19.1503        21.5533         6.5258
       4956.00         8.5000        12.0490         0.1114         2.4168        77.1132       113.8049       0.137400         2.1184        20.8727        24.9244         5.4237
       4956.50         8.5000        12.3121         0.1499         2.4122        76.9751       106.6423       0.133600         2.1078        23.4183        28.9787         2.9895
       4957.00         8.5000        12.6504         0.1658         2.4082        75.9760        91.0155       0.128200         2.0935        22.0502        29.2022         2.6153
       4957.50         8.5000        12.8383         0.1634         2.4122        76.3222        82.0622       0.123100         2.0922        20.9817        29.9439         2.6710
       4958.00         8.5000        12.6804         0.1533         2.4289        76.8779        80.7846       0.123100         2.0997        19.9882        30.0509         3.8369
       4958.50         8.5000        12.4700         0.1364         2.4604        77.5328        82.1741       0.131400         2.0968        19.4540        29.4391         3.5014
       4959.00         8.5000        12.3347         0.1051         2.4732        77.7651        84.9737       0.138700         2.0733        21.1602        32.1762         4.0654
       4959.50         8.5000        11.8160         0.0640         2.4864        77.3252        85.8096       0.142400         2.0361        25.5344        38.0808         5.6106
       4960.00         8.5000        11.6356         0.0273         2.5012        75.4115        92.1764       0.141700         2.0171        40.8157        60.8779        18.3982
       4960.50         8.5000        11.5003         0.0068         2.5255        74.1613        99.1242       0.144900         2.0483        38.0254        49.3991        34.4843
       4961.00         8.5000        11.4176         0.0017         2.5553        71.3379       107.4070       0.154300         2.1255        38.5711        46.4174        33.3786
       4961.50         8.5000        11.2973         0.0015         2.5782        68.8941       118.2110       0.166300         2.1989        51.6333        58.4074        32.6827
       4962.00         8.5000        11.2823         0.0001         2.5714        69.3269       121.2261       0.183600         2.2454        67.8417        73.0075         7.6369
       4962.50         8.5000        11.2672        -0.0026         2.5207        68.7762       114.0934       0.188200         2.2617        68.8679        68.2419         2.2775
       4963.00         8.5000        11.2597        -0.0039         2.4564        69.4412        94.9374       0.157400         2.2470        34.9690        37.5763         1.2963
       4963.50         8.5000        11.2973        -0.0016         2.4361        71.1099        79.3171       0.132000         2.2343        26.8977        29.9111         1.0333
       4964.00         8.5000        11.3048         0.0036         2.4974        69.7919        82.8918       0.126300         2.3029        36.5474        40.1756         1.0660
       4964.50         8.5000        11.4213         0.0052         2.5594        68.7057        98.2704       0.152300         2.5564        65.6915        72.4485         1.6412
       4965.00         8.5000        11.2973         0.0028         2.5961        67.1194       111.1733       0.173700         2.9067        98.3633       103.1379         4.0124
       4965.50         8.5000        11.3199         0.0047         2.5875        66.0899       104.5500       0.166800         3.1129        62.2076        71.6311        20.3576
       4966.00         8.5000        11.4476         0.0309         2.6068        66.2469        89.1715       0.139700         3.0052        62.0853        69.0997         6.8391
       4966.50         8.5000        11.4101         0.0670         2.6068        65.3702        77.2070       0.133800         2.6741       101.5195       115.9832         1.7490
       4967.00         8.5000        11.6356         0.0851         2.5763        67.2210        67.9253       0.120500         2.3461       123.0897       134.7168         0.8998
       4967.50         8.5000        12.6579         0.0701         2.5337        69.6649        64.5294       0.120900         2.1566        73.0501       105.3751         0.8983
       4968.00         8.5000        11.6468         0.0396         2.5197        70.4505        67.8588       0.134500         2.0971        46.8648        71.6600         1.7026
       4968.50         8.5000        11.6957         0.0178         2.5373        71.5546        82.5577       0.151000         2.1021        59.7178        96.9350        10.7500
       4969.00         8.5000        11.5303         0.0064         2.5381        71.8768        89.6386       0.153500         2.1145        56.1315        90.5517        33.6164
       4969.50         8.5000        11.5378         0.0018         2.5333        71.7458        91.1274       0.140700         2.1019        34.2348        45.1698        22.7542
       4970.00         8.5000        11.5454         0.0008         2.5274        71.4058        84.6759       0.134100         2.0851        38.8029        51.3925        19.5524
       4970.50         8.5000        11.5303         0.0064         2.5337        70.4047        85.4001       0.130000         2.0836        41.7131        56.6933        23.9327
       4971.00         8.5000        11.5341         0.0174         2.4961        71.5558        85.2702       0.133400         2.1006        48.8579        72.3189        34.3544
       4971.50         8.5000        11.4552         0.0454         2.4393        70.6195        85.7771       0.146200         2.1272        59.2233        91.1977        11.7997
       4972.00         8.5000        12.2520         0.0949         2.3970        71.5426        84.2462       0.145000         2.1485        36.0598        59.8765         7.1390
       4972.50         8.5000        12.8308         0.1516         2.4131        71.7221        78.8180       0.141700         2.1642        36.8254        63.9663         3.4252
       4973.00         8.5000        12.8684         0.1856         2.4690        72.2921        76.0757       0.131700         2.1866        36.1173        68.0870         2.1443
       4973.50         8.5000        12.5602         0.1755         2.5163        73.0533        73.8041       0.132900         2.2492        29.2126        58.9308         1.9437
       4974.00         8.5000        11.8273         0.1339         2.5649        70.8910        82.9354       0.144100         2.3828        42.9788        80.1573         2.7670
       4974.50         8.5000        11.3424         0.0829         2.6045        69.0386        95.6917       0.168500         2.5747        67.1566       109.8835         9.9922
       4975.00         8.5000        11.0943         0.0414         2.6430        68.0583       109.6752       0.198700         2.7790        89.6601       133.9081        68.5739
       4975.50         8.5000        11.0342         0.0171         2.6678        66.5183       112.1686       0.207700         2.9147       103.7830       143.1702       100.2400
       4976.00         8.5000        11.0117         0.0060         2.6649        66.6229       112.6814       0.196200         2.9569        96.3737       111.6308        97.9529
       4976.50         8.5000        10.9966         0.0004         2.6473        66.7140       115.0518       0.185100         2.9466        85.9221        95.7857        99.8239
       4977.00         8.5000        10.9966        -0.0046         2.6276        66.3482       115.5914       0.177600         2.9697       110.6065       114.5964       115.9239
