~Version Information Block
VERS .                 2.00:  CWLS LOG ASCII STANDARD - VERSION 2.00
WRAP .                   NO:  One line per depth step
~Well Information Block
#MNEM.UNIT        Data Type   Information
#---------- ----------------  -----------
STRT .FT            4550.00:  START DEPTH
STOP .FT            5250.00:  STOP DEPTH
STEP .FT               0.50:  STEP
NULL .              -999.25:  NULL VALUE
COMP .                     :  COMPANY
WELL .                    H:  WELL
FLD  .                     :  FIELD
LOC  .                     :  LOCATION
CTRY .                     :  COUNTRY
STAT .                     :  STATE
CNTY .                     :  COUNTY
SRVC .                     :  SERVICE COMPANY
DATE .                     :  DATE
API  .                     :  API NUMBER
UWI  .                     :  UNIQUE WELL ID
~Curve Information Block
#MNEM.UNIT         API CODE   Curve Description
#---------- ----------------  -----------------
DEPTH.FT                   :  
BS   .IN                   :  8.5
CALI .IN                   :  Caliper
DDEN .G/C3                 :  HDRA_1 Depth Shifted (Shift Pairs set)
DEN  .G/C3                 :  Bulk density
DT   .US/F                 :  Compressional sonic log
GR   .GAPI                 :  Gamma Ray
NPHI .V/V                  :  Neutron porosity log
PE   .B/E                   :  PEFZ_1 Depth Shifted (Shift Pairs set)
RDEEP.OHMM                 :  Deep resistivity log
RMED .OHMM                 :  Medium resistivity log
RSHAL.OHMM                 :  Micro-resistivity log
~Parameter Information Block
#MNEM.UNIT            Value   Description
#---------- ----------------  -----------
PROJECT.                 UB:  
SET  .                   UB:  
~Other Information Block
# 
~A       DEPTH             BS           CALI           DDEN            DEN             DT             GR           NPHI            PEF          RDEEP           RMED          RSHAL 
       4550.00         8.5000         8.8016         1.2455         3.9572        86.3576        86.1071       0.361200        10.0000         0.0093         0.0092         0.0301
       4550.50         8.5000         8.7941         1.2186         3.9300        86.2149        80.1508       0.376400        10.0000         0.0120         0.0172         0.0301
       4551.00         8.5000         8.8167         1.1971         3.9010        86.3624        82.1480       0.386600        10.0000    100000.0000    100000.0000         0.0301
       4551.50         8.5000         8.8167         1.1892         3.8806        86.4510        79.3722       0.415800        10.0000         0.0242         0.0323         0.0301
       4552.00         8.5000         8.8167         1.1985         3.8749        86.3992        77.8143       0.414100        10.0000    100000.0000    100000.0000         0.0301
       4552.50         8.5000         8.8054         1.2109         3.8790        86.6374        74.1985       0.393900        10.0000    100000.0000    100000.0000         0.0301
       4553.00         8.5000         8.8054         1.2156         3.8830        88.3437        76.5353       0.406500        10.0000         0.0315         0.0465         0.0301
       4553.50         8.5000         8.8016         1.2016         3.8797        81.3729        80.7954       0.426700        10.0000    100000.0000    100000.0000         0.0301
       4554.00         8.5000         8.7941         1.1824         3.8755        71.7927        84.2314       0.426600        10.0000         0.0040    100000.0000         0.0302
       4554.50         8.5000         8.8167         1.1785         3.8821        80.0247        82.6735       0.424100        10.0000    100000.0000    100000.0000         0.0316
       4555.00         8.5000         8.8167         1.2098         3.9161        87.4665        84.6282       0.423100        10.0000    100000.0000    100000.0000         0.0322
       4555.50         8.5000         8.8054         1.2849         4.0419        89.1875        86.3906       0.461000        10.0000    100000.0000    100000.0000         0.0331
       4556.00         8.5000         8.7941         1.4018         4.2842        90.5626        84.8177       0.459500        10.0000         0.0439         0.0558         0.0319
       4556.50         8.5000         8.7941         1.5225         4.5029        89.5442        80.3452       0.485500        10.0000         0.0575         0.0700         0.0322
       4557.00         8.5000         8.8054         1.5953         4.6288        89.4714        77.7883       0.455400        10.0000         0.0988         0.1514         0.0427
       4557.50         8.5000         8.8016         1.5832         4.5495        90.1951        78.1928       0.488400        10.0000    100000.0000    100000.0000         0.0433
       4558.00         8.5000         8.8279         1.4942         4.3311        89.4029        82.2775       0.472200        10.0000         0.0787         0.1287         0.0501
       4558.50         8.5000         8.8317         1.3797         4.0876        79.2794        83.8509       0.444500        10.0000    100000.0000    100000.0000         0.0538
       4559.00         8.5000         8.8317         1.2916         3.9210        87.7197        84.3647       0.402400        10.0000    100000.0000    100000.0000         0.1417
       4559.50         8.5000         8.8392         1.2476         3.8870        87.8558        81.1343       0.400800        10.0000         0.0513         0.0600         0.3538
       4560.00         8.5000         8.8317         1.2332         3.8750        89.4228        76.4606       0.388800        10.0000    100000.0000    100000.0000         0.0985
       4560.50         8.5000         8.8167         1.2284         3.8612        89.8415        74.7784       0.415300        10.0000         0.0114         0.0129         0.0456
       4561.00         8.5000         8.8167         1.2286         3.8543        88.2221        74.7546       0.429800        10.0000         0.0134         0.0110         0.0312
       4561.50         8.5000         8.8167         1.2315         3.8552        87.8998        76.5722       0.423700        10.0000         0.0451         0.0635         0.0301
       4562.00         8.5000         8.8167         1.2363         3.8648        87.7602        73.3266       0.397200        10.0000         0.0116         0.0128         0.0311
       4562.50         8.5000         8.8167         1.2362         3.8733        87.7649        77.5450       0.409700        10.0000         0.0120         0.0135         0.0329
       4563.00         8.5000         8.8279         1.2331         3.8757        87.9381        74.8187       0.429700        10.0000         0.0118         0.0133         0.0328
       4563.50         8.5000         8.8392         1.2254         3.8750        88.0339        77.6748       0.456900        10.0000         0.0119         0.0134         0.0360
       4564.00         8.5000         8.8392         1.2227         3.8774        88.0023        76.5795       0.435000        10.0000         0.0116         0.0130         0.0461
       4564.50         8.5000         8.8167         1.2215         3.8840        87.7744        81.6982       0.417900        10.0000         0.0113         0.0127         0.0465
       4565.00         8.5000         8.8167         1.2208         3.8935        87.7383        83.8896       0.411000        10.0000         0.0111         0.0124         0.0603
       4565.50         8.5000         8.8167         1.2257         3.9068        87.8806        78.3684       0.424000        10.0000         0.0114         0.0128         0.0952
       4566.00         8.5000         8.8279         1.2415         3.9224        87.9249        79.3727       0.380600        10.0000         0.0116         0.0132         0.4146
       4566.50         8.5000         8.8242         1.2608         3.9342        87.8349        81.4224       0.369400        10.0000         0.0117         0.0132         0.0731
       4567.00         8.5000         8.8167         1.2706         3.9381        87.8587        87.2197       0.372800        10.0000         0.0119         0.0134         0.0393
       4567.50         8.5000         8.8167         1.2683         3.9334        87.8700        87.7177       0.444000        10.0000         0.0121         0.0136         0.0303
       4568.00         8.5000         8.8167         1.2549         3.9209        87.8764        89.8380       0.506500        10.0000         0.0120         0.0134         0.0313
       4568.50         8.5000         8.8167         1.2368         3.9105        87.9604        91.9830       0.487100        10.0000         0.0122         0.0137         0.0324
       4569.00         8.5000         8.8016         1.2166         3.9022        88.0964        91.2040       0.437500        10.0000         0.0118         0.0132         0.0321
       4569.50         8.5000         8.7941         1.2026         3.9051        88.3015        88.9970       0.410900        10.0000         0.0094         0.0102         0.0314
       4570.00         8.5000         8.8054         1.1957         3.9107        88.4014        90.5981       0.429900        10.0000         0.0117         0.0133         0.0307
       4570.50         8.5000         8.8016         1.1987         3.9194        88.2900        93.0102       0.492500        10.0000         0.0195         0.0227         0.0311
       4571.00         8.5000         8.8167         1.2064         3.9252        88.1916        93.6422       0.501000        10.0000    100000.0000         0.0011         0.0319
       4571.50         8.5000         8.8167         1.2113         3.9286        88.2691        90.8049       0.594500        10.0000         0.0109         0.0155         0.0336
       4572.00         8.5000         8.8091         1.2130         3.9322        88.3709        90.3061       0.537900        10.0000    100000.0000    100000.0000         0.0341
