~Version Information Block
VERS .                 2.00:  CWLS LOG ASCII STANDARD - VERSION 2.00
WRAP .                   NO:  One line per depth step
~Well Information Block
#MNEM.UNIT        Data Type   Information
#---------- ----------------  -----------
STRT .FT            4550.00:  START DEPTH
STOP .FT            5250.00:  STOP DEPTH
STEP .FT               0.50:  STEP
NULL .              -999.25:  NULL VALUE
COMP .                     :  COMPANY
WELL .                    H:  WELL
FLD  .                     :  FIELD
LOC  .                     :  LOCATION
CTRY .                     :  COUNTRY
STAT .                     :  STATE
CNTY .                     :  COUNTY
SRVC .                     :  SERVICE COMPANY
DATE .                     :  DATE
API  .                     :  API NUMBER
UWI  .                     :  UNIQUE WELL ID
~Curve Information Block
#MNEM.UNIT         API CODE   Curve Description
#---------- ----------------  -----------------
DEPTH.FT                   :  
BS   .IN                   :  8.5
CALI .IN                   :  Caliper
DDEN .G/C3                 :  HDRA_1 Depth Shifted (Shift Pairs set)
DEN  .G/C3                 :  Bulk density
DT   .US/F                 :  Compressional sonic log
GR   .GAPI                 :  Gamma Ray
NPHI .V/V                  :  Neutron porosity log
PE   .B/E                   :  PEFZ_1 Depth Shifted (Shift Pairs set)
RDEEP.OHMM                 :  Deep resistivity log
RMED .OHMM                 :  Medium resistivity log
RSHAL.OHMM                 :  Micro-resistivity log
~Parameter Information Block
#MNEM.UNIT            Value   Description
#---------- ----------------  -----------
PROJECT.                 UB:  
SET  .                   UB:  
~Other Information Block
# 
~A       DEPTH             BS           CALI           DDEN            DEN             DT             GR           NPHI            PEF          RDEEP           RMED          RSHAL 
# ...
       4595.00         8.5000         8.9069         1.1220         3.7792        61.3510        34.9362       0.224400        10.0000         0.0159         0.0121         0.0332
       4595.50         8.5000         8.9069         1.1313         3.7899        62.6233        29.8297       0.186100        10.0000         0.0167         0.0144         0.0319
       4596.00         8.5000         8.8956         1.1770         3.8916        65.7121        27.6227       0.187500        10.0000         0.0135         0.0128         0.0302
       4596.50         8.5000         8.9069         1.3027         4.1601        81.7955        29.3401       0.207000         9.9981         0.0147         0.0135         0.0323
       4597.00         8.5000         8.9069         1.4487         4.4297        85.7931        27.9382       0.241800         9.9894         0.0122         0.0119         0.0393
       4597.50         8.5000         8.9444         1.4245         4.3573        90.3173        27.6785       0.211500         9.7371         0.0139         0.0130         0.0397
       4598.00         8.5000         9.1775         1.0800         3.7672        80.6708        24.8764       0.202700         8.8088    100000.0000    100000.0000         0.0372
       4598.50         8.5000         9.2902         0.6602         3.2262        77.4845        27.3169       0.190200         7.1774         0.1115         0.1268         0.0389
       4599.00         8.5000         9.5383         0.3848         2.7906        80.4078        31.2461       0.193100         5.3869         0.1961         0.2066         0.0696
       4599.50         8.5000         9.6962         0.3054         2.7496        64.3425        44.9534       0.181300         4.0862         1.4211         1.8732         0.2504
       4600.00         8.5000         9.8540         0.2376         2.6451        64.9217        57.8059       0.172700         3.4288         8.9362        11.9212         2.1901
       4600.50         8.5000         9.7413         0.1322         2.6601        69.0075        66.7248       0.162400         3.1732        33.3499        45.5116         7.0827
       4601.00         8.5000         9.7976         0.0589         2.6379        69.5960        71.7880       0.157900         3.1438        54.2398        80.5891        55.2800
       4601.50         8.5000         9.7751         0.0201         2.6076        71.6236        77.2240       0.179700         3.1783        43.3331        58.4557        33.4518
       4602.00         8.5000         9.8540         0.0123         2.5937        73.5936        85.9182       0.209700         3.1505        37.2375        48.0052        20.3091
       4602.50         8.5000         9.9104         0.0130         2.5748        72.2404        88.1087       0.220300         3.0528        41.3254        57.7470        19.3303
       4603.00         8.5000         9.9668         0.0119         2.5756        69.4886        83.5815       0.200100         2.9873        43.9162        59.0825        21.9374
       4603.50         8.5000        10.8124         0.0067         2.6023        68.7645        74.7667       0.175300         3.0545        53.2524        82.1164        24.2351
       4604.00         8.5000        10.7561         0.0004         2.6341        68.7849        69.5903       0.163200         3.2165        73.0494       123.3377        30.3033
       4604.50         8.5000         9.9217        -0.0028         2.6516        69.9517        77.3731       0.185000         3.3304        50.8170        84.6977        39.2737
       4605.00         8.5000         9.9517         0.0021         2.6544        72.8658        93.5963       0.215600         3.2803        36.6595        59.6861        38.8629
       4605.50         8.5000         9.9893         0.0063         2.6393        73.0674       110.3539       0.228000         3.0498        38.6536        57.5996        35.8305
       4606.00         8.5000        10.0194         0.0059         2.6198        73.2848       120.3569       0.219600         2.7782        43.6747        59.6710        38.0648
       4606.50         8.5000        10.0457         0.0033         2.5954        72.9187       121.0060       0.226800         2.5754        40.4423        54.4450        40.5195
       4607.00         8.5000        10.0570         0.0010         2.5634        71.9062       106.4224       0.212800         2.4585        48.9172        65.7772        40.1001
       4607.50         8.5000        10.0570         0.0014         2.5355        70.4024        82.6646       0.167700         2.3534        70.2761        86.6153        39.5665
       4608.00         8.5000         9.8991         0.0019         2.5037        69.7714        62.7791       0.131100         2.2430        63.8701        75.1549        32.0925
       4608.50         8.5000         9.8540         0.0008         2.4865        69.9029        49.9597       0.104200         2.1609       148.7396       153.0399        27.9624
       4609.00         8.5000         9.8315        -0.0015         2.4807        70.3420        41.9106       0.083300         2.1166       170.9741       174.7340        22.0680
       4609.50         8.5000         9.8390        -0.0026         2.4939        70.4371        32.6301       0.077200         2.0913       158.7377       170.4337        22.1080
       4610.00         8.5000         9.7187        -0.0018         2.5092        69.5726        31.8511       0.077400         2.0686       220.3160       217.1667        22.1322
       4610.50         8.5000         9.7563        -0.0012         2.5166        67.9921        37.4336       0.079200         2.0501       346.8423       298.4315        30.6423
       4611.00         8.5000         9.7638         0.0006         2.5296        68.0254        44.4241       0.077900         2.0499       402.5077       286.6248        41.9572
       4611.50         8.5000         9.7788         0.0045         2.5361        67.5450        43.6451       0.075400         2.0738       258.4319       190.8054        48.7443
       4612.00         8.5000         9.7751         0.0165         2.5475        68.0232        37.4136       0.070500         2.1246       247.6845       151.0192        54.4351
       4612.50         8.5000         9.8315         0.0263         2.5284        71.5586        35.1236       0.071400         2.1520       107.6342        66.3157        33.5539
       4613.00         8.5000        10.0457         0.0281         2.4995        74.7791        46.0057       0.088500         2.1219        38.3609        28.5713        15.3364
       4613.50         8.5000        10.4103         0.0178         2.4552        77.4620        57.5600       0.118800         2.0495        29.5026        24.8594         9.5803
       4614.00         8.5000        10.5644         0.0052         2.4129        80.3907        62.2922       0.141800         2.0056        27.3572        24.2016         8.3335
       4614.50         8.5000        10.6659        -0.0008         2.3945        81.3309        57.9533       0.144900         1.9893        22.9574        22.2000         7.6720
       4615.00         8.5000        10.6959        -0.0018         2.3950        81.4596        54.0844       0.153600         1.9800        22.7263        22.8231         6.5369
       4615.50         8.5000        10.7561        -0.0007         2.4137        81.0601        57.4394       0.151100         1.9668        23.2967        23.6050         5.7205
       4616.00         8.5000        10.8087        -0.0007         2.4367        80.1146        65.6811       0.154500         1.9864        26.0518        24.6274         6.1297
       4616.50         8.5000        10.8613        -0.0021         2.4604        78.1401        74.9186       0.155700         2.0373        35.3989        30.4667         8.0663
       4617.00         8.5000        10.8914        -0.0043         2.4766        76.2941        83.3599       0.154200         2.1114        30.1552        26.2624         9.5723
