~Version Information Block
VERS .                 2.00:  CWLS LOG ASCII STANDARD - VERSION 2.00
WRAP .                   NO:  One line per depth step
~Well Information Block
#MNEM.UNIT        Data Type   Information
#---------- ----------------  -----------
STRT .FT            4550.00:  START DEPTH
STOP .FT            5250.00:  STOP DEPTH
STEP .FT               0.50:  STEP
NULL .              -999.25:  NULL VALUE
COMP .                     :  COMPANY
WELL .                    H:  WELL
FLD  .                     :  FIELD
LOC  .                     :  LOCATION
CTRY .                     :  COUNTRY
STAT .                     :  STATE
CNTY .                     :  COUNTY
SRVC .                     :  SERVICE COMPANY
DATE .                     :  DATE
API  .                     :  API NUMBER
UWI  .                     :  UNIQUE WELL ID
~Curve Information Block
#MNEM.UNIT         API CODE   Curve Description
#---------- ----------------  -----------------
DEPTH.FT                   :  
BS   .IN                   :  8.5
CALI .IN                   :  Caliper
DDEN .G/C3                 :  HDRA_1 Depth Shifted (Shift Pairs set)
DEN  .G/C3                 :  Bulk density
DT   .US/F                 :  Compressional sonic log
GR   .GAPI                 :  Gamma Ray
NPHI .V/V                  :  Neutron porosity log
PE   .B/E                   :  PEFZ_1 Depth Shifted (Shift Pairs set)
RDEEP.OHMM                 :  Deep resistivity log
RMED .OHMM                 :  Medium resistivity log
RSHAL.OHMM                 :  Micro-resistivity log
~Parameter Information Block
#MNEM.UNIT            Value   Description
#---------- ----------------  -----------
PROJECT.                 UB:  
SET  .                   UB:  
~Other Information Block
# 
~A       DEPTH             BS           CALI           DDEN            DEN             DT             GR           NPHI            PEF          RDEEP           RMED          RSHAL 
# ...
       5180.00         8.5000         8.8693        -0.0081         2.4174        73.1288        45.7531       0.113800         1.9007         6.9512         3.9007         2.9673
       5180.50         8.5000         8.8693        -0.0059         2.4273        73.1818        47.8159       0.118200         1.9045         6.6568         3.6409         3.0443
       5181.00         8.5000         8.8392        -0.0034         2.4339        73.7619        48.4458       0.115800         1.9067         7.1692         3.7916         3.0171
       5181.50         8.5000         8.8392        -0.0019         2.4398        74.3515        53.4212       0.120800         1.9048         7.6703         3.9604         3.0478
       5182.00         8.5000         8.8279        -0.0015         2.4409        74.9060        63.2373       0.125600         1.9011         8.5080         4.2162         3.2635
       5182.50         8.5000         8.8167        -0.0022         2.4323        75.7740        69.8273       0.135400         1.8993         6.8359         3.4213         3.1112
       5183.00         8.5000         8.7941        -0.0044         2.4142        76.1673        67.5317       0.142000         1.9003         6.1423         3.1853         2.8033
       5183.50         8.5000         8.7866        -0.0068         2.4003        75.6754        57.4344       0.140300         1.9041         6.4016         3.3390         2.6624
       5184.00         8.5000         8.7716        -0.0082         2.3940        75.2126        53.0274       0.140400         1.9122         5.9781         3.1069         2.6562
       5184.50         8.5000         8.7490        -0.0086         2.3925        75.1138        51.1416       0.137400         1.9344         5.3692         2.8285         2.5522
       5185.00         8.5000         8.7415        -0.0085         2.3917        74.4044        50.2039       0.139700         1.9732         4.9994         2.6358         2.3898
       5185.50         8.5000         8.7265        -0.0087         2.3928        74.0091        49.2589       0.137900         2.0245         4.9434         2.6007         2.3198
       5186.00         8.5000         8.6983        -0.0091         2.3938        73.4086        54.7512       0.135100         2.0653         4.7836         2.5134         2.2493
       5186.50         8.5000         8.7039        -0.0091         2.3950        73.1984        57.1512       0.130400         2.0671         4.4834         2.3335         2.1696
       5187.00         8.5000         8.6814        -0.0086         2.3935        72.9732        55.9396       0.133300         2.0323         4.3831         2.2955         2.1208
       5187.50         8.5000         8.6814        -0.0087         2.3864        73.2872        48.0634       0.135900         2.0047         4.3753         2.2990         2.0228
       5188.00         8.5000         8.6663        -0.0097         2.3820        73.2274        46.9716       0.141300         2.0119         4.3729         2.2769         2.0156
       5188.50         8.5000         8.6663        -0.0105         2.3838        73.0193        43.6898       0.138700         2.0356         4.3028         2.2343         1.9800
       5189.00         8.5000         8.6663        -0.0091         2.3988        73.6814        45.2775       0.139400         2.0403         4.1852         2.1738         1.9960
       5189.50         8.5000         8.6663        -0.0060         2.4094        74.0665        44.3444       0.139500         2.0199         4.1379         2.1376         2.0121
       5190.00         8.5000         8.6814        -0.0047         2.4030        74.3299        45.2176       0.141800         1.9993         4.0522         2.0940         2.0188
       5190.50         8.5000         8.6757        -0.0063         2.3841        74.1381        45.2239       0.143900         1.9947         3.9364         2.0543         1.9932
       5191.00         8.5000         8.6738        -0.0085         2.3716        74.0805        42.6922       0.144600         1.9987         3.8997         2.0383         1.9033
       5191.50         8.5000         8.6663        -0.0093         2.3744        74.2729        41.3027       0.147400         2.0141         3.9183         2.0602         1.9344
       5192.00         8.5000         8.6926        -0.0093         2.3879        74.5069        41.7715       0.143800         2.0753         4.0462         2.0983         1.9247
       5192.50         8.5000         8.6814        -0.0106         2.3897        75.0071        44.3903       0.143400         2.2092         4.0543         2.0945         1.9359
       5193.00         8.5000         8.6663        -0.0114         2.3942        75.1527        48.9635       0.149100         2.3358         4.1196         2.1006         1.9222
       5193.50         8.5000         8.6663        -0.0108         2.3861        76.0344        51.7688       0.149100         2.3403         4.3452         2.1711         1.9953
       5194.00         8.5000         8.6588        -0.0098         2.3820        77.0715        57.1899       0.152900         2.2312         4.5938         2.2621         2.0073
       5194.50         8.5000         8.6738        -0.0098         2.3716        77.6822        62.5938       0.150700         2.1279         4.7774         2.3192         2.0652
       5195.00         8.5000         8.6663        -0.0106         2.3702        77.7447        70.8528       0.153800         2.1143         4.6981         2.2824         2.0504
       5195.50         8.5000         8.6588        -0.0096         2.3661        77.3423        78.5654       0.154400         2.1576         4.4304         2.1523         2.0609
       5196.00         8.5000         8.6588        -0.0046         2.3673        76.3170        84.2703       0.160300         2.2041         4.3255         2.1230         1.9079
       5196.50         8.5000         8.6588         0.0011         2.3650        75.6831        88.9585       0.160800         2.2328         4.1338         2.0802         1.8723
       5197.00         8.5000         8.6588         0.0021         2.3688        74.7972        91.5588       0.158900         2.2213         4.0912         2.1048         1.8127
       5197.50         8.5000         8.6588        -0.0022         2.3664        74.1487        90.3903       0.154200         2.1587         3.9117         2.0184         1.8120
       5198.00         8.5000         8.6513        -0.0073         2.3666        75.0930        77.2843       0.152000         2.0746         3.8292         2.0160         1.7606
       5198.50         8.5000         8.6513        -0.0094         2.3608        76.1160        64.9967       0.155500         2.0282         3.7090         1.9391         1.7187
       5199.00         8.5000         8.6513        -0.0108         2.3538        75.9176        53.4471       0.156200         2.0501         3.6949         1.9547         1.7150
       5199.50         8.5000         8.6475        -0.0121         2.3496        76.5685        52.9278       0.163300         2.0991         3.5981         1.8866         1.6810
       5200.00         8.5000         8.6513        -0.0117         2.3527        75.8484        55.6541       0.164900         2.1219         3.5475         1.8403         1.6672
       5200.50         8.5000         8.6362        -0.0103         2.3528        76.6343        58.4208       0.163800         2.1072         3.5025         1.7998         1.6453
       5201.00         8.5000         8.6438        -0.0095         2.3499        76.1610        59.5783       0.162100         2.0785         3.4322         1.7632         1.6316
       5201.50         8.5000         8.6287        -0.0095         2.3436        75.6543        58.4099       0.170500         2.0599         3.4218         1.7746         1.6041
       5202.00         8.5000         8.6212        -0.0097         2.3436        75.6572        60.0976       0.171300         2.0541         3.4337         1.7743         1.5935
