~Version Information Block
VERS .                 2.00:  CWLS LOG ASCII STANDARD - VERSION 2.00
WRAP .                   NO:  One line per depth step
~Well Information Block
#MNEM.UNIT        Data Type   Information
#---------- ----------------  -----------
STRT .FT            4550.00:  START DEPTH
STOP .FT            5250.00:  STOP DEPTH
STEP .FT               0.50:  STEP
NULL .              -999.25:  NULL VALUE
COMP .                     :  COMPANY
WELL .                    H:  WELL
FLD  .                     :  FIELD
LOC  .                     :  LOCATION
CTRY .                     :  COUNTRY
STAT .                     :  STATE
CNTY .                     :  COUNTY
SRVC .                     :  SERVICE COMPANY
DATE .                     :  DATE
API  .                     :  API NUMBER
UWI  .                     :  UNIQUE WELL ID
~Curve Information Block
#MNEM.UNIT         API CODE   Curve Description
#---------- ----------------  -----------------
DEPTH.FT                   :  
BS   .IN                   :  8.5
CALI .IN                   :  Caliper
DDEN .G/C3                 :  HDRA_1 Depth Shifted (Shift Pairs set)
DEN  .G/C3                 :  Bulk density
DT   .US/F                 :  Compressional sonic log
GR   .GAPI                 :  Gamma Ray
NPHI .V/V                  :  Neutron porosity log
PE   .B/E                   :  PEFZ_1 Depth Shifted (Shift Pairs set)
RDEEP.OHMM                 :  Deep resistivity log
RMED .OHMM                 :  Medium resistivity log
RSHAL.OHMM                 :  Micro-resistivity log
~Parameter Information Block
#MNEM.UNIT            Value   Description
#---------- ----------------  -----------
PROJECT.                 UB:  
SET  .                   UB:  
~Other Information Block
# 
~A       DEPTH             BS           CALI           DDEN            DEN             DT             GR           NPHI            PEF          RDEEP           RMED          RSHAL 
# ...
       5135.00         8.5000         9.8766         0.0006         2.5118        71.4101        61.7803       0.126200         1.9062        24.4706        20.3299         9.1525
       5135.50         8.5000         9.8615         0.0006         2.5111        71.6467        64.5711       0.120600         1.9302        38.5130        28.7842        12.2087
       5136.00         8.5000         9.8766         0.0024         2.5101        71.4473        71.4120       0.129800         1.9367        37.7628        23.4201        15.1442
       5136.50         8.5000         9.8540         0.0037         2.4908        71.2235        66.5115       0.132800         1.9168        14.9035         9.5498         8.4920
       5137.00         8.5000         9.8540         0.0030         2.4710        70.9300        52.0141       0.119400         1.8790        12.5943         8.8767         5.2667
       5137.50         8.5000         9.8766         0.0015         2.4617        69.9675        41.2947       0.100500         1.8323        15.0585        11.0533         4.7534
       5138.00         8.5000         9.8615         0.0007         2.4675        69.9117        37.9780       0.090600         1.7934        15.9166        11.6136         5.8905
       5138.50         8.5000         9.8691         0.0008         2.4715        70.4008        38.3698       0.088400         1.7763        16.3712        11.7802         6.6014
       5139.00         8.5000         9.8766         0.0007         2.4704        70.4452        37.9377       0.094300         1.7793        14.5893         9.7288         6.6450
       5139.50         8.5000         9.8991         0.0007         2.4716        70.3842        41.0559       0.100600         1.7865        14.2674         8.8667         5.8232
       5140.00         8.5000         9.8916         0.0010         2.4726        69.7900        45.0332       0.107300         1.7910        14.2666         8.3950         5.5659
       5140.50         8.5000         9.8916         0.0011         2.4764        68.9646        44.7705       0.108000         1.7988        16.1255         9.1547         5.5777
       5141.00         8.5000         9.8991         0.0010         2.4852        68.9886        42.9839       0.105400         1.8057        17.7748        10.0372         6.2433
       5141.50         8.5000         9.9142         0.0008         2.4897        68.8398        41.3601       0.093400         1.8133        19.4273        10.9768         6.8492
       5142.00         8.5000         9.9142         0.0003         2.4903        68.8484        42.3508       0.084500         1.8199        19.7672        11.2476         7.2982
       5142.50         8.5000         9.9442        -0.0001         2.4855        69.0169        41.0088       0.079900         1.8202        19.3739        11.1924         7.1013
       5143.00         8.5000         9.9442        -0.0001         2.4853        69.7226        41.8314       0.082600         1.8110        17.5477        10.5257         6.7815
       5143.50         8.5000         9.9442        -0.0006         2.4794        70.3260        44.6444       0.088900         1.8045        15.9660        10.1118         6.5991
       5144.00         8.5000         9.9442        -0.0016         2.4780        70.5173        46.4199       0.092100         1.8123        15.5950        10.3905         6.4658
       5144.50         8.5000         9.9517        -0.0022         2.4747        70.3620        48.6578       0.094600         1.8288        15.9420        10.9039         6.8683
       5145.00         8.5000         9.9893        -0.0024         2.4743        70.1696        49.1267       0.093500         1.8461        16.2412        11.1423         6.6250
       5145.50         8.5000        10.0006        -0.0025         2.4705        69.8908        50.4797       0.093600         1.8645        16.8249        11.4788         6.6647
       5146.00         8.5000        10.0119        -0.0027         2.4761        69.8429        53.3864       0.099200         1.8861        17.4085        11.3465         6.3527
       5146.50         8.5000        10.0044        -0.0018         2.4953        69.2655        64.2516       0.105100         1.9042        22.5238        13.9283         8.3644
       5147.00         8.5000        10.0495        -0.0001         2.5141        68.7744        76.8694       0.117500         1.9248        36.4228        21.3316        10.2427
       5147.50         8.5000        10.0795         0.0021         2.5358        69.0950        79.2039       0.123000         1.9436        41.0333        29.5392        17.0803
       5148.00         8.5000        10.1021         0.0034         2.5354        69.5431        78.3716       0.119000         1.9424        56.8257        42.2374        22.2190
       5148.50         8.5000        10.1021         0.0036         2.5251        69.8734        77.9089       0.116000         1.9131        55.8125        45.1852        10.7320
       5149.00         8.5000        10.1096         0.0026         2.4825        70.1942        75.8886       0.107400         1.8716        31.4085        26.9851         6.7260
       5149.50         8.5000        10.1397         0.0028         2.4645        70.4891        68.1061       0.104500         1.8374        28.0686        25.2552         4.5727
       5150.00         8.5000        10.1472         0.0047         2.4596        71.7469        58.7219       0.099600         1.8198        26.1169        24.3914         5.6436
       5150.50         8.5000        10.1472         0.0054         2.4842        71.5291        61.6003       0.108000         1.8139        28.4817        27.4166         6.9457
       5151.00         8.5000        10.1472         0.0036         2.4967        72.4590        64.6945       0.116700         1.8243        40.1912        39.1063        12.1062
       5151.50         8.5000        10.1622        -0.0001         2.4944        72.1850        68.8279       0.120800         1.8500        32.5470        32.3142        11.4041
       5152.00         8.5000        10.1622        -0.0018         2.4834        72.5769        66.8451       0.120100         1.8659        27.2526        26.8459         7.3013
       5152.50         8.5000        10.1810        -0.0016         2.4710        72.6676        63.3901       0.112200         1.8627        23.1849        22.7779         5.8179
       5153.00         8.5000        10.1697        -0.0002         2.4796        71.3748        60.6626       0.116800         1.8525        20.8501        20.4060         6.5615
       5153.50         8.5000        10.1697         0.0009         2.5003        70.8785        63.3908       0.115100         1.8652        22.7237        22.1842         8.9600
       5154.00         8.5000        10.1585         0.0007         2.5287        69.9985        74.6284       0.122600         1.9066        37.8077        36.5080        13.1368
       5154.50         8.5000        10.1171        -0.0004         2.5395        70.6542        84.0494       0.126200         1.9556        42.5852        41.2225        18.4937
       5155.00         8.5000        10.1171        -0.0014         2.5324        70.9085        89.0189       0.128400         1.9857        45.7981        42.9387        11.7417
       5155.50         8.5000        10.1021        -0.0011         2.5164        72.0794        78.8840       0.127000         1.9748        26.1365        24.7238         8.8401
       5156.00         8.5000        10.0946        -0.0001         2.5041        72.4184        66.9397       0.117000         1.9399        20.9012        19.7729         7.5567
       5156.50         8.5000        10.0870         0.0005         2.4978        72.8561        57.3538       0.107600         1.9130        21.9039        20.8146         7.8418
       5157.00         8.5000        10.0570         0.0006         2.4915        72.1858        59.9875       0.105100         1.9085        22.2381        21.0850         8.6768
