~Version Information Block
VERS .                 2.00:  CWLS LOG ASCII STANDARD - VERSION 2.00
WRAP .                   NO:  One line per depth step
~Well Information Block
#MNEM.UNIT        Data Type   Information
#---------- ----------------  -----------
STRT .FT            4550.00:  START DEPTH
STOP .FT            5250.00:  STOP DEPTH
STEP .FT               0.50:  STEP
NULL .              -999.25:  NULL VALUE
COMP .                     :  COMPANY
WELL .                    H:  WELL
FLD  .                     :  FIELD
LOC  .                     :  LOCATION
CTRY .                     :  COUNTRY
STAT .                     :  STATE
CNTY .                     :  COUNTY
SRVC .                     :  SERVICE COMPANY
DATE .                     :  DATE
API  .                     :  API NUMBER
UWI  .                     :  UNIQUE WELL ID
~Curve Information Block
#MNEM.UNIT         API CODE   Curve Description
#---------- ----------------  -----------------
DEPTH.FT                   :  
BS   .IN                   :  8.5
CALI .IN                   :  Caliper
DDEN .G/C3                 :  HDRA_1 Depth Shifted (Shift Pairs set)
DEN  .G/C3                 :  Bulk density
DT   .US/F                 :  Compressional sonic log
GR   .GAPI                 :  Gamma Ray
NPHI .V/V                  :  Neutron porosity log
PE   .B/E                   :  PEFZ_1 Depth Shifted (Shift Pairs set)
RDEEP.OHMM                 :  Deep resistivity log
RMED .OHMM                 :  Medium resistivity log
RSHAL.OHMM                 :  Micro-resistivity log
~Parameter Information Block
#MNEM.UNIT            Value   Description
#---------- ----------------  -----------
PROJECT.                 UB:  
SET  .                   UB:  
~Other Information Block
# 
~A       DEPTH             BS           CALI           DDEN            DEN             DT             GR           NPHI            PEF          RDEEP           RMED          RSHAL 
# ...
       4865.00         8.5000         8.7039        -0.0024         2.3915        77.7266        27.4093       0.117400         1.7892         4.0782         2.1381         2.0901
       4865.50         8.5000         8.6814        -0.0025         2.3854        78.0805        26.1111       0.116500         1.7893         4.0348         2.0799         1.9822
       4866.00         8.5000         8.7039        -0.0032         2.3752        80.6618        27.2795       0.127100         1.7969         4.0195         2.0235         1.9265
       4866.50         8.5000         8.6926        -0.0039         2.3744        78.7230        24.3869       0.132000         1.7933         3.9791         1.9837         1.9009
       4867.00         8.5000         8.7039        -0.0051         2.3663        77.6639        25.4254       0.144000         1.7859         3.9821         1.9617         1.9033
       4867.50         8.5000         8.6814        -0.0062         2.3645        78.5127        23.0779       0.150700         1.7783         3.9831         1.9688         1.9018
       4868.00         8.5000         8.7039        -0.0065         2.3640        78.3725        24.2663       0.153000         1.7701         3.9724         1.9705         1.8955
       4868.50         8.5000         8.6889        -0.0069         2.3611        75.8464        24.0067       0.147300         1.7709         3.9371         1.9394         1.8548
       4869.00         8.5000         8.6889        -0.0071         2.3592        74.2192        27.5166       0.147500         1.7845         3.9301         1.8610         1.8259
       4869.50         8.5000         8.6926        -0.0070         2.3555        75.0850        28.1408       0.147600         1.8171         4.0172         1.9539         1.8489
       4870.00         8.5000         8.6926        -0.0059         2.3612        74.8988        30.6329       0.147000         1.8498         3.9332         1.9227         1.8849
       4870.50         8.5000         8.6814        -0.0043         2.3682        76.4459        31.7030       0.143400         1.8655         3.8806         1.9089         1.8895
       4871.00         8.5000         8.6926        -0.0041         2.3696        80.9972        34.1946       0.144800         1.8622         3.7470         1.8122         1.8709
       4871.50         8.5000         8.7039        -0.0052         2.3695        80.7557        31.9621       0.145100         1.8448         3.7731         1.8653         1.8446
       4872.00         8.5000         8.6926        -0.0066         2.3595        80.1255        32.3193       0.147400         1.8346         3.7530         1.8924         1.8247
       4872.50         8.5000         8.6814        -0.0072         2.3574        80.1371        31.8778       0.142100         1.8299         3.7198         1.9100         1.8162
       4873.00         8.5000         8.6814        -0.0066         2.3626        81.2628        31.6130       0.143200         1.8236         3.5441         1.7762         1.8159
       4873.50         8.5000         8.6926        -0.0061         2.3706        81.3654        31.1413       0.144600         1.8159         3.5635         1.8641         1.8253
       4874.00         8.5000         8.6814        -0.0058         2.3765        80.9057        33.6523       0.148500         1.8143         3.5672         1.8737         1.8193
       4874.50         8.5000         8.6926        -0.0068         2.3660        80.6870        35.6733       0.153700         1.8375         3.5285         1.8586         1.8216
       4875.00         8.5000         8.6814        -0.0085         2.3554        81.9624        34.3285       0.152500         1.8852         3.5185         1.8790         1.8062
       4875.50         8.5000         8.6926        -0.0091         2.3507        77.3728        32.2999       0.150900         1.9288         3.5666         1.9276         1.8201
       4876.00         8.5000         8.7039        -0.0081         2.3566        77.5525        30.7978       0.145600         1.9334         3.5688         1.9244         1.8288
       4876.50         8.5000         8.6814        -0.0066         2.3632        77.5939        31.9720       0.150400         1.8994         3.4985         1.8905         1.8099
       4877.00         8.5000         8.7039        -0.0053         2.3679        78.1825        32.9301       0.152000         1.8660         3.4169         1.8211         1.8016
       4877.50         8.5000         8.6926        -0.0045         2.3702        77.4366        31.5075       0.150600         1.8831         3.4507         1.8996         1.8455
       4878.00         8.5000         8.6926        -0.0033         2.3801        75.6045        28.6590       0.140800         1.9493         3.5613         1.9365         1.8838
       4878.50         8.5000         8.7039        -0.0016         2.3903        74.9975        29.4775       0.136400         2.0210         3.5487         1.9242         1.8659
       4879.00         8.5000         8.6814        -0.0003         2.3893        74.4784        35.8993       0.139400         2.0481         3.4373         1.8103         1.7864
       4879.50         8.5000         8.6889        -0.0002         2.3821        74.8072        40.9472       0.147500         2.0222         3.4754         1.9179         1.7632
       4880.00         8.5000         8.6926        -0.0020         2.3714        74.2696        41.9858       0.146200         1.9731         3.4974         1.9066         1.7907
       4880.50         8.5000         8.6926        -0.0040         2.3692        73.6641        37.8802       0.145000         1.9247         3.5070         1.9243         1.8142
       4881.00         8.5000         8.6926        -0.0054         2.3662        73.1827        33.8633       0.140600         1.8813         3.4221         1.8933         1.8718
       4881.50         8.5000         8.6926        -0.0057         2.3640        74.3422        27.5019       0.140800         1.8485         3.3535         1.8767         1.8614
       4882.00         8.5000         8.6814        -0.0059         2.3615        73.7233        26.6583       0.134500         1.8359         3.2971         1.8388         1.8443
       4882.50         8.5000         8.6814        -0.0067         2.3609        73.7127        25.2302       0.137100         1.8418         3.3002         1.8453         1.7948
       4883.00         8.5000         8.7039        -0.0081         2.3623        73.3689        26.6007       0.144300         1.8514         3.3096         1.8678         1.7909
       4883.50         8.5000         8.6926        -0.0092         2.3604        73.3185        27.5949       0.147900         1.8704         3.2801         1.8478         1.7985
       4884.00         8.5000         8.7039        -0.0094         2.3615        73.1799        29.2826       0.146700         1.9017         3.2915         1.8498         1.8168
       4884.50         8.5000         8.7039        -0.0088         2.3627        72.9924        30.8495       0.140300         1.9412         3.3177         1.8707         1.8333
       4885.00         8.5000         8.7152        -0.0073         2.3724        72.7568        29.9758       0.139600         1.9715         3.3185         1.8506         1.8357
       4885.50         8.5000         8.7490        -0.0054         2.3804        73.6930        29.0670       0.133300         1.9864         3.2876         1.8416         1.8440
       4886.00         8.5000         8.6814        -0.0038         2.3842        73.6198        26.9086       0.136500         1.9976         3.3342         1.8698         1.8481
       4886.50         8.5000         8.6926        -0.0033         2.3802        74.0318        25.9444       0.135600         2.0111         3.2849         1.8293         1.8565
       4887.00         8.5000         8.6814        -0.0043         2.3722        74.3476        27.4909       0.134900         2.0250         3.2908         1.8309         1.8418
