~Version Information Block
VERS .                 2.00:  CWLS LOG ASCII STANDARD - VERSION 2.00
WRAP .                   NO:  One line per depth step
~Well Information Block
#MNEM.UNIT        Data Type   Information
#---------- ----------------  -----------
STRT .FT            4550.00:  START DEPTH
STOP .FT            5250.00:  STOP DEPTH
STEP .FT               0.50:  STEP
NULL .              -999.25:  NULL VALUE
COMP .                     :  COMPANY
WELL .                    H:  WELL
FLD  .                     :  FIELD
LOC  .                     :  LOCATION
CTRY .                     :  COUNTRY
STAT .                     :  STATE
CNTY .                     :  COUNTY
SRVC .                     :  SERVICE COMPANY
DATE .                     :  DATE
API  .                     :  API NUMBER
UWI  .                     :  UNIQUE WELL ID
~Curve Information Block
#MNEM.UNIT         API CODE   Curve Description
#---------- ----------------  -----------------
DEPTH.FT                   :  
BS   .IN                   :  8.5
CALI .IN                   :  Caliper
DDEN .G/C3                 :  HDRA_1 Depth Shifted (Shift Pairs set)
DEN  .G/C3                 :  Bulk density
DT   .US/F                 :  Compressional sonic log
GR   .GAPI                 :  Gamma Ray
NPHI .V/V                  :  Neutron porosity log
PE   .B/E                   :  PEFZ_1 Depth Shifted (Shift Pairs set)
RDEEP.OHMM                 :  Deep resistivity log
RMED .OHMM                 :  Medium resistivity log
RSHAL.OHMM                 :  Micro-resistivity log
~Parameter Information Block
#MNEM.UNIT            Value   Description
#---------- ----------------  -----------
PROJECT.                 UB:  
SET  .                   UB:  
~Other Information Block
# 
~A       DEPTH             BS           CALI           DDEN            DEN             DT             GR           NPHI            PEF          RDEEP           RMED          RSHAL 
# ...
       5000.00         8.5000        11.9363         0.0036         2.4402        74.1704        45.1806       0.103300         1.9754        25.5128        22.3945         8.3526
       5000.50         8.5000        11.9287         0.0043         2.4247        74.0877        52.5198       0.116100         1.9578        26.1739        23.1412         8.4962
       5001.00         8.5000        11.8724         0.0106         2.4000        73.1326        60.0085       0.130400         1.9320        30.0193        25.8942         7.3641
       5001.50         8.5000        12.5602         0.0199         2.3878        72.8960        57.5591       0.130900         1.9086        23.4754        21.8709         4.7014
       5002.00         8.5000        12.7631         0.0311         2.4021        71.2515        51.9537       0.120600         1.8956        24.2450        22.9155         3.3295
       5002.50         8.5000        12.9511         0.0392         2.4336        73.1767        43.2593       0.108300         1.9031        24.1090        24.9543         3.3434
       5003.00         8.5000        12.0791         0.0365         2.4504        73.5903        44.9146       0.108500         1.9260        23.0392        25.7603         4.4399
       5003.50         8.5000        12.0340         0.0249         2.4574        75.4163        58.6263       0.106100         1.9388        18.9147        20.4855         6.3585
       5004.00         8.5000        12.0114         0.0106         2.4461        77.6909        66.9361       0.121900         1.9305        17.0008        16.0570         5.9381
       5004.50         8.5000        11.9738         0.0022         2.4385        77.0460        64.5876       0.132700         1.8984        14.3383        13.4476         5.7044
       5005.00         8.5000        11.9889         0.0005         2.4378        77.4314        52.2135       0.139700         1.8733        15.9504        14.7039         4.5826
       5005.50         8.5000        11.9438         0.0003         2.4395        77.0750        51.3324       0.137600         1.8715        18.6618        17.1610         5.0018
       5006.00         8.5000        11.9062        -0.0003         2.4400        76.7122        56.5684       0.137900         1.8924        17.8503        16.2735         5.5743
       5006.50         8.5000        11.9062        -0.0007         2.4429        76.4347        63.2184       0.141100         1.9071        15.1100        13.6473         5.8306
       5007.00         8.5000        11.8912         0.0005         2.4568        76.0178        66.4099       0.143500         1.9148        19.6033        17.2897         5.8176
       5007.50         8.5000        11.8385         0.0015         2.4632        76.0987        73.1979       0.146600         1.9359        26.5779        22.7546         6.9574
       5008.00         8.5000        11.7934         0.0009         2.4600        75.3118        75.9770       0.140700         1.9753        20.6111        17.7097         7.7265
       5008.50         8.5000        11.7483        -0.0004         2.4574        75.3089        73.4184       0.137200         1.9888        22.1145        18.1227         7.5853
       5009.00         8.5000        11.7183         0.0002         2.4681        74.9103        69.1128       0.131500         1.9624        23.0296        18.3274         7.0954
       5009.50         8.5000        11.7032         0.0022         2.4735        74.5835        67.5248       0.140800         1.9154        20.1789        15.2782         8.0947
       5010.00         8.5000        11.6807         0.0047         2.4634        74.1080        64.0289       0.146800         1.8999        16.5370        12.5827         7.1810
       5010.50         8.5000        11.6957         0.0065         2.4441        74.1931        55.6776       0.142700         1.9126        16.1870        12.2764         6.7309
       5011.00         8.5000        11.6656         0.0074         2.4315        74.1985        46.7447       0.130500         1.9250        15.4680        11.7554         5.9917
       5011.50         8.5000        11.6581         0.0078         2.4331        74.7460        43.7733       0.126500         1.9240        16.4740        12.2811         5.6499
       5012.00         8.5000        11.6130         0.0069         2.4362        74.0019        42.6131       0.132800         1.9068        15.5194        11.5526         4.8966
       5012.50         8.5000        11.6656         0.0067         2.4476        73.2335        41.3319       0.130800         1.9053        15.5849        11.3437         4.9423
       5013.00         8.5000        11.5003         0.0065         2.4545        73.3006        39.2467       0.131100         1.9139        15.8999        11.2483         5.3524
       5013.50         8.5000        11.4627         0.0059         2.4623        72.5456        37.7700       0.132500         1.9214        16.2973        11.3520         6.0866
       5014.00         8.5000        11.4552         0.0046         2.4641        71.8372        38.3565       0.131800         1.9226        16.6836        11.0760         6.2253
       5014.50         8.5000        11.4627         0.0027         2.4594        71.8287        38.3512       0.126000         1.9293        16.9693        11.1345         6.1108
       5015.00         8.5000        11.3875         0.0018         2.4583        71.7421        40.3552       0.115900         1.9468        16.8206        10.9816         5.8818
       5015.50         8.5000        11.3424         0.0024         2.4622        71.6700        40.4544       0.114100         1.9709        17.4066        11.3086         5.9424
       5016.00         8.5000        11.3199         0.0032         2.4704        71.4883        39.9632       0.110800         1.9814        17.5296        11.3151         6.4796
       5016.50         8.5000        11.2823         0.0044         2.4795        71.3169        40.5961       0.113800         1.9944        18.1217        11.7344         7.3321
       5017.00         8.5000        11.2973         0.0039         2.4763        71.4781        39.4050       0.110000         2.0024        16.4526        11.0654         7.1063
       5017.50         8.5000        11.2898         0.0024         2.4660        71.4104        40.8599       0.110400         2.0169        16.2988        11.4163         6.7107
       5018.00         8.5000        11.2860         0.0004         2.4546        71.7805        39.5733       0.107500         2.0224        16.3537        11.3967         6.4753
       5018.50         8.5000        11.3086        -0.0002         2.4539        71.5946        41.8562       0.108600         2.0084        16.4257        11.5614         6.8645
       5019.00         8.5000        11.3048         0.0004         2.4569        71.8292        44.9690       0.113800         1.9752        16.6668        11.9023         6.8355
       5019.50         8.5000        11.3199         0.0013         2.4630        73.1759        50.2636       0.127000         1.9285        17.0514        12.2487         7.2723
       5020.00         8.5000        11.3424         0.0011         2.4596        73.3648        52.7449       0.141600         1.9026        17.2624        12.4708         6.2224
       5020.50         8.5000        11.3762        -0.0001         2.4538        73.6380        55.2222       0.141200         1.9071        17.1807        12.3944         6.2284
       5021.00         8.5000        11.4213        -0.0014         2.4507        72.0466        52.3097       0.132300         1.9301        18.2347        13.1193         6.5364
       5021.50         8.5000        11.4326        -0.0016         2.4621        69.8927        49.2392       0.113300         1.9420        21.4253        15.5028         7.6711
       5022.00         8.5000        11.4552        -0.0010         2.4790        67.6630        43.8765       0.095000         1.9426        25.8580        18.5804         8.8054
