~Version Information Block
VERS .                 2.00:  CWLS LOG ASCII STANDARD - VERSION 2.00
WRAP .                   NO:  One line per depth step
~Well Information Block
#MNEM.UNIT        Data Type   Information
#---------- ----------------  -----------
STRT .FT            4550.00:  START DEPTH
STOP .FT            5250.00:  STOP DEPTH
STEP .FT               0.50:  STEP
NULL .              -999.25:  NULL VALUE
COMP .                     :  COMPANY
WELL .                    H:  WELL
FLD  .                     :  FIELD
LOC  .                     :  LOCATION
CTRY .                     :  COUNTRY
STAT .                     :  STATE
CNTY .                     :  COUNTY
SRVC .                     :  SERVICE COMPANY
DATE .                     :  DATE
API  .                     :  API NUMBER
UWI  .                     :  UNIQUE WELL ID
~Curve Information Block
#MNEM.UNIT         API CODE   Curve Description
#---------- ----------------  -----------------
DEPTH.FT                   :  
BS   .IN                   :  8.5
CALI .IN                   :  Caliper
DDEN .G/C3                 :  HDRA_1 Depth Shifted (Shift Pairs set)
DEN  .G/C3                 :  Bulk density
DT   .US/F                 :  Compressional sonic log
GR   .GAPI                 :  Gamma Ray
NPHI .V/V                  :  Neutron porosity log
PE   .B/E                   :  PEFZ_1 Depth Shifted (Shift Pairs set)
RDEEP.OHMM                 :  Deep resistivity log
RMED .OHMM                 :  Medium resistivity log
RSHAL.OHMM                 :  Micro-resistivity log
~Parameter Information Block
#MNEM.UNIT            Value   Description
#---------- ----------------  -----------
PROJECT.                 UB:  
SET  .                   UB:  
~Other Information Block
# 
~A       DEPTH             BS           CALI           DDEN            DEN             DT             GR           NPHI            PEF          RDEEP           RMED          RSHAL 
# ...
       4685.00         8.5000        10.7561         0.0536         2.5606        70.2243        86.8373       0.166400         2.2108        57.5020        54.6042        20.9264
       4685.50         8.5000        10.7673         0.0382         2.5456        68.9725       100.9881       0.177300         2.2397        72.9984        66.6182        16.4298
       4686.00         8.5000        10.7673         0.0434         2.4394        69.9699       102.9503       0.168600         2.2344        86.3196        74.6746         7.7788
       4686.50         8.5000        10.8237         0.0709         2.2321        68.1625        92.8240       0.143000         2.1661        66.5260        60.7889         2.5233
       4687.00         8.5000        11.2409         0.1229         2.0446        67.1321        81.2697       0.120400         1.9985        83.8291        80.6749         1.3371
       4687.50         8.5000        12.5000         0.1865         1.9674        65.5555        71.4733       0.089100         1.7931       112.9490       139.3725         0.9381
       4688.00         8.5000        12.7857         0.2363         2.0446        66.1787        57.4148       0.072400         1.6600       181.1522       190.0880         0.9247
       4688.50         8.5000        12.5940         0.2438         2.1675        67.4336        44.1704       0.060700         1.6706       243.9457       233.8574         1.1310
       4689.00         8.5000        12.1618         0.2011         2.2697        65.7748        34.2335       0.055500         1.7805       470.4889       291.2200         1.5073
       4689.50         8.5000        11.5566         0.1398         2.3516        66.1749        30.5061       0.055200         1.8914       475.4384       286.0063         2.2776
       4690.00         8.5000        11.3650         0.0919         2.4078        64.7920        26.6138       0.051700         1.9584       462.5311       268.9660         3.5938
       4690.50         8.5000        11.0943         0.0742         2.4787        63.2195        24.4068       0.052400         1.9840       413.4295       251.0665         7.6898
       4691.00         8.5000        10.3614         0.0663         2.5217        63.4379        23.6229       0.057400         1.9863       398.0684       251.9333        16.6126
       4691.50         8.5000        10.2374         0.0483         2.5475        64.2654        31.9317       0.073100         1.9906       425.5761       225.6702        28.6118
       4692.00         8.5000        10.2374         0.0252         2.5500        66.8504        63.1391       0.108800         2.0147       261.8999       102.6818        43.6284
       4692.50         8.5000        10.4629         0.0119         2.5401        68.2344        89.7377       0.146900         2.0443       122.9568        49.7948        30.1917
       4693.00         8.5000        10.7035         0.0085         2.4992        71.7800        96.0991       0.157700         2.0345        73.6780        32.4784        16.6346
       4693.50         8.5000        10.7786         0.0057         2.4506        74.4719        76.1863       0.145100         1.9789        60.1452        28.2692        10.7506
       4694.00         8.5000        10.7861         0.0017         2.4168        76.8490        59.1996       0.131600         1.9131        44.5301        23.2265         9.1536
       4694.50         8.5000        10.8012        -0.0014         2.3972        77.2500        52.4488       0.125000         1.8734        36.4584        20.9753         8.3951
       4695.00         8.5000        10.8463        -0.0027         2.3876        76.7229        51.4002       0.128900         1.8575        41.0683        23.5733         8.2062
       4695.50         8.5000        10.8801        -0.0025         2.3885        75.9365        47.7651       0.119600         1.8474        43.1376        24.4955         8.4887
       4696.00         8.5000        11.2071        -0.0024         2.3895        75.3727        46.9862       0.119900         1.8536        44.3040        23.6283         7.1245
       4696.50         8.5000        10.9139        -0.0024         2.3933        75.4402        46.2324       0.119700         1.8754        40.2585        20.2062         6.8990
       4697.00         8.5000        10.9027        -0.0026         2.3920        75.7434        47.9201       0.126700         1.9008        44.8425        21.3264         6.8959
       4697.50         8.5000        10.9816        -0.0019         2.3983        75.9639        47.9201       0.124000         1.8969        44.4915        20.6935         7.5598
       4698.00         8.5000        10.8576        -0.0006         2.4009        76.2454        47.3857       0.127100         1.8812        41.8040        19.6813         7.5512
       4698.50         8.5000        10.8463         0.0002         2.4064        76.9244        50.5014       0.131600         1.8789        36.4227        18.1918         7.5818
       4699.00         8.5000        10.8124        -0.0001         2.4113        76.7606        54.5150       0.130900         1.9062        34.1118        17.6956         8.0428
       4699.50         8.5000        10.7786        -0.0009         2.4216        76.7522        57.8904       0.126100         1.9478        34.6145        18.2653         8.5687
       4700.00         8.5000        10.7561        -0.0015         2.4297        76.6463        60.8764       0.119500         1.9838        33.4519        18.4573         8.7825
       4700.50         8.5000        10.7222        -0.0017         2.4313        77.2492        65.6674       0.116100         2.0020        33.7641        19.2044         7.4666
       4701.00         8.5000        10.7410        -0.0004         2.4359        77.4571        68.0042       0.117500         1.9881        32.2501        19.0835         6.8848
       4701.50         8.5000        10.7561         0.0011         2.4343        77.4972        66.7060       0.126700         1.9532        32.2045        19.0947         6.4375
       4702.00         8.5000        10.7786         0.0035         2.4375        76.6766        58.4207       0.136100         1.9286        32.1295        19.2343         6.4271
       4702.50         8.5000        10.8237         0.0205         2.4286        76.3308        58.1610       0.139900         1.9478        37.2367        20.0616         6.5663
       4703.00         8.5000        10.8688         0.0620         2.3766        73.9255        66.1934       0.136800         1.9966        56.8239        27.5548         6.9449
       4703.50         8.5000        11.0718         0.1434         2.3374        72.8421        73.8530       0.130900         1.9993       102.1241        46.2873         7.1737
       4704.00         8.5000        11.8761         0.2517         2.3423        70.7329        70.7427       0.114900         1.8978       109.9370        54.0533         6.7671
       4704.50         8.5000        12.0415         0.3419         2.3744        68.7178        58.7007       0.102400         1.7577       136.9656        74.4273         5.4416
       4705.00         8.5000        12.0528         0.3645         2.3779        68.8317        46.4301       0.088000         1.6817       178.9395       106.6534         3.8309
       4705.50         8.5000        12.0753         0.3141         2.3888        68.0190        40.4527       0.085600         1.7015       164.4763       103.3777         2.4763
       4706.00         8.5000        11.3199         0.2252         2.4194        68.8895        36.6729       0.089600         1.7608       136.6715        94.6974         2.0185
       4706.50         8.5000        11.1282         0.1369         2.4547        68.8303        38.8097       0.092800         1.8117       115.5550        79.8741         2.4634
       4707.00         8.5000        10.8688         0.0708         2.4582        69.8237        38.9396       0.092000         1.8564        75.6890        43.8600         4.1236
